학교종류명,설립구분,표준학교코드,학교명,영문학교명,관할조직명,도로명우편번호,도로명주소,도로명상세주소,남녀공학구분명,고등학교구분명,산업체특별학급존재여부,고등학교일반실업구분명,특수목적고등학교계열명,입시전후기구분명,주야구분명,설립일자,위도,경도
각종학교(중),사립,7134155,선화예술중학교,Sunhwa Arts Middle School,서울특별시성동광진교육지원청,4991,서울특별시 광진구 천호대로 664,/ 선화예술중고등학교 (능동),남여공학,,N,일반계,,전기,주간,19731201,37.5509798002896,127.087095159462
초등학교,공립,7134150,서울숭신초등학교,Seoul Soongshin Elementary School,서울특별시성동광진교육지원청,4702,서울특별시 성동구 마장로 161,(하왕십리동),남여공학,,N,일반계,,전기,주간,19590403,37.5676883077439,127.028005141452
중학교,공립,7134142,행당중학교,Haengdang Middle School,서울특별시성동광진교육지원청,4764,서울특별시 성동구 왕십리로 189,(행당동/행당중학교),남여공학,,N,일반계,,전기,주간,19680806,37.5545540364985,127.041963387397
중학교,사립,7134141,한양대학교사범대학부속중학교,Hanyang University Middle School,서울특별시성동광진교육지원청,4761,서울특별시 성동구 마조로 42,(사근동/한양사대부속중?고등학교),남여공학,,N,일반계,,전기,주간,19600118,37.5619188387132,127.042324044658
중학교,공립,7134140,자양중학교,Jayang Middle School,서울특별시성동광진교육지원청,5069,서울특별시 광진구 뚝섬로41길 33,(자양동/서울자양중학교),남여공학,,N,일반계,,전기,주간,19840301,37.5353984111403,127.074383180054
중학교,공립,7134139,용곡중학교,Yong-gok Middle School,서울특별시성동광진교육지원청,4940,서울특별시 광진구 용마산로22길 76,(중곡동/용곡중학교),남여공학,,N,일반계,,전기,주간,19821209,37.5657301902527,127.089281028711
중학교,공립,7134138,옥정중학교,Ok-Jung Middle School,서울특별시성동광진교육지원청,4734,서울특별시 성동구 한림말길 11,/ 옥정중학교 (옥수동),남여공학,,N,일반계,,전기,주간,19840109,37.5416703705205,127.012983234555
중학교,공립,7134137,양진중학교,Yangjin Middle School,서울특별시성동광진교육지원청,4982,서울특별시 광진구 워커힐로 32,/ 양진중학교,남여공학,,N,해당없음,,전기,주간,20051229,37.5445751665695,127.098311399741
중학교,공립,7134136,신양중학교,Shinyang Middle School,서울특별시성동광진교육지원청,5087,서울특별시 광진구 자양강변길 73,/ 신양중학교 (자양동),남여공학,,N,일반계,,전기,주간,19840109,37.5336522682692,127.063425269386
중학교,공립,7134135,성원중학교,Sungwon Middle School,서울특별시성동광진교육지원청,4775,서울특별시 성동구 성덕정9가길 13,(성수동2가/ 성원중학교),남여공학,,N,일반계,,전기,주간,19680806,37.5394518246786,127.051383529488
중학교,공립,7134134,성수중학교,Seongsu Middle School,서울특별시성동광진교육지원청,4768,서울특별시 성동구 서울숲길 18,(성수동1가/ 성수중학교),남여공학,,N,일반계,,전기,주간,19671027,37.5473418143935,127.038253431317
중학교,공립,7134132,무학중학교,Muhak Middle School,서울특별시성동광진교육지원청,4716,서울특별시 성동구 행당로 120,(행당동),남여공학,,N,일반계,,전기,주간,19681001,37.557701190017,127.031992242352
중학교,공립,7134131,마장중학교,Majang Junior High School,서울특별시성동광진교육지원청,4753,서울특별시 성동구 마장로35나길 31,/ 마장중학교 (마장동),남여공학,,N,해당없음,,전기,주간,20050301,37.5683388716972,127.041605053834
중학교,사립,7134130,대원국제중학교,Daewon International Middle School,서울특별시성동광진교육지원청,4939,서울특별시 광진구 용마산로22길 26,/ 대원국제중학교 (중곡동),남여공학,,N,일반계,,전기,주간,19770520,37.5624502219725,127.089376716312
중학교,공립,7134129,동마중학교,Dongma Middle School,서울특별시성동광진교육지원청,4759,서울특별시 성동구 마조로11길 18,(마장동),남여공학,,N,일반계,,전기,주간,19841208,37.5628025060626,127.040351173206
중학교,사립,7134128,동국대학교사범대학부속여자중학교,Girls Middle School Attached to College of Education/ Dongguk University,서울특별시성동광진교육지원청,5038,서울특별시 광진구 광나루로36길 47,/ 동국대학교사범대학부속여자중학교 (구의동),여,,N,일반계,,전기,주간,19300620,37.5419293578309,127.086973061678
중학교,공립,7134127,구의중학교,Guui Middle School,서울특별시성동광진교육지원청,5022,서울특별시 광진구 광나루로30길 80,(화양동),남여공학,,N,일반계,,전기,주간,19840430,37.5428503028479,127.078840375276
중학교,공립,7134126,광희중학교,Kwanghee Middle School,서울특별시성동광진교육지원청,4742,서울특별시 성동구 독서당로62길 46,/ 광희중학교 (응봉동),남여공학,,N,일반계,,전기,주간,19370521,37.5511545255411,127.033980048989
중학교,공립,7134125,광진중학교,Gwangjin Middle School,서울특별시성동광진교육지원청,5114,서울특별시 광진구 뚝섬로64길 45,(자양동/광진중학교),남여공학,,N,일반계,,전기,주간,19790901,37.5322195901849,127.090162126057
중학교,공립,7134124,광장중학교,Gwangjang Middle School,서울특별시성동광진교육지원청,4966,서울특별시 광진구 광장로1길 1,/ 광장중학교 (광장동),남여공학,,N,일반계,,전기,주간,19821209,37.5471775185817,127.101927589353
중학교,공립,7134123,광양중학교,Kwangyang Middle School,서울특별시성동광진교육지원청,5104,서울특별시 광진구 자양로3길 7,(자양동),남여공학,,N,일반계,,전기,주간,19860129,37.5308913414973,127.08616998675
중학교,공립,7134122,광남중학교,Gwangnam Middle School,서울특별시성동광진교육지원청,4973,서울특별시 광진구 아차산로70길 17-62,/ 광남중학교 (광장동),남여공학,,N,일반계,,전기,주간,19930116,37.5408304051926,127.101643877784
중학교,공립,7134121,경일중학교,Kyungil Middle School,서울특별시성동광진교육지원청,4779,서울특별시 성동구 성수일로 27,(성수동1가),남여공학,,N,해당없음,,전기,주간,20031230,37.5438083798316,127.047853796815
중학교,공립,7134120,경수중학교,Gyeongsu Middle School,서울특별시성동광진교육지원청,4785,서울특별시 성동구 뚝섬로13길 14,(성수동2가),남여공학,,N,일반계,,전기,주간,19801227,37.5395090367488,127.059271203056
중학교,사립,7134119,건국대학교사범대학부속중학교,Middle School Attached To College of Education KONKUK University,서울특별시성동광진교육지원청,5025,서울특별시 광진구 자양로 145-1,건국대학교사범대학부속중학교,남여공학,,N,일반계,,전기,주간,19671230,37.5406971558966,127.08321501624
초등학교,사립,7134118,한양초등학교,Hanyang Elementary School,서울특별시성동광진교육지원청,4763,서울특별시 성동구 살곶이길 208,/ 한양초등학교 (사근동),남여공학,,N,일반계,,전기,주간,19660220,37.5576210338606,127.050263444631
초등학교,사립,7134117,세종초등학교,Sejong Elementary School,서울특별시성동광진교육지원청,5006,서울특별시 광진구 군자로 114,/ 세종초등학교 (군자동),남여공학,,N,일반계,,전기,주간,19621004,37.5530110986438,127.072864629554
초등학교,사립,7134116,성동초등학교,Sungdong Elementary School,서울특별시성동광진교육지원청,5114,서울특별시 광진구 자양로4길 63,(자양동),남여공학,,N,일반계,,전기,주간,19661216,37.5332813682573,127.089281026795
초등학교,공립,7134114,서울행현초등학교,Seoul Haenghyun Elementary School,서울특별시성동광진교육지원청,4713,서울특별시 성동구 행당로 95,(행당동),남여공학,,N,해당없음,,전기,주간,20050714,37.5577089897922,127.0293680158
초등학교,공립,7134113,서울행당초등학교,Seoul Haengdang Elementary School,서울특별시성동광진교육지원청,4746,서울특별시 성동구 고산자로8길 6,/ 서울행당초등학교 (행당동),남여공학,,N,일반계,,전기,주간,19621026,37.5570191301189,127.034873404864
초등학교,공립,7134112,서울중마초등학교,Seoul Jungma Elementary School,서울특별시성동광진교육지원청,4907,서울특별시 광진구 동일로72길 43,(중곡동),남여공학,,N,일반계,,전기,주간,19821110,37.5657908403343,127.079023916301
초등학교,공립,7134111,서울중광초등학교,Seoul Junggwang Elementary School,서울특별시성동광진교육지원청,4908,서울특별시 광진구 긴고랑로13길 59,(중곡동/중광초등학교),남여공학,,N,일반계,,전기,주간,19980901,37.5652421437337,127.082693009564
초등학교,공립,7134110,서울장안초등학교,Seoul Jang-an Elementary School,서울특별시성동광진교육지원청,5004,서울특별시 광진구 군자로 74,(군자동),남여공학,,N,일반계,,전기,주간,19550319,37.549876450253,127.072402467919
초등학교,공립,7134109,서울자양초등학교,Seoul jayang Elementary School,서울특별시성동광진교육지원청,5054,서울특별시 광진구 아차산로44길 26,(자양동),남여공학,,N,일반계,,전기,주간,19451210,37.5368378891148,127.080107720459
초등학교,공립,7134108,서울응봉초등학교,Seoul Eungbong Elementary School,서울특별시성동광진교육지원청,4742,서울특별시 성동구 독서당로62길 28,(응봉동/ 응봉초등학교),남여공학,,N,일반계,,전기,주간,20020712,37.5502533901839,127.033829695602
초등학교,공립,7134107,서울용마초등학교,Seoul Yongma Elementary School,서울특별시성동광진교육지원청,4926,서울특별시 광진구 천호대로113길 10,(중곡동),남여공학,,N,일반계,,전기,주간,19720801,37.5578273465317,127.083527417056
초등학교,공립,7134106,서울용답초등학교,Seoul Yongdap Elementary School,서울특별시성동광진교육지원청,4805,서울특별시 성동구 용답25길 1,/ 서울용답초등학교,남여공학,,N,일반계,,전기,주간,19830420,37.5607271218686,127.053760797077
초등학교,공립,7134105,서울용곡초등학교,Seoul Yong-gok Elementary School,서울특별시성동광진교육지원청,4940,서울특별시 광진구 용마산로22길 82,/ 서울용곡초등학교 (중곡동),남여공학,,N,일반계,,전기,주간,19780213,37.5671086161443,127.088452984118
초등학교,공립,7134104,서울옥정초등학교,Seoul Okjeong Elementary School,서울특별시성동광진교육지원청,4735,서울특별시 성동구 한림말길 43,(옥수동/옥정초등학교),남여공학,,N,일반계,,전기,주간,19710522,37.5423097389598,127.015785478614
초등학교,공립,7134103,서울옥수초등학교,Seoul Oksu Elementary School,서울특별시성동광진교육지원청,4740,서울특별시 성동구 금호로1길 25,/ 옥수초등학교 (금호동4가),남여공학,,N,일반계,,전기,주간,19670327,37.5455293912538,127.021869551034
초등학교,공립,7134102,서울양진초등학교,Seoul Yangjin Elementary School,서울특별시성동광진교육지원청,4982,서울특별시 광진구 워커힐로 32,(광장동/양진초중학교),남여공학,,N,해당없음,,전기,주간,20050301,37.5445751665695,127.098311399741
초등학교,공립,7134101,서울양남초등학교,Seoul Yangnam Elementary School,서울특별시성동광진교육지원청,5114,서울특별시 광진구 뚝섬로64길 71,/ (자양동/ 서울양남초등학교),남여공학,,N,일반계,,전기,주간,19831203,37.5311232360546,127.089234331023
초등학교,공립,7134100,서울신자초등학교,Seoul Sinja Elementary School,서울특별시성동광진교육지원청,5110,서울특별시 광진구 뚝섬로46길 64,/ 서울신자초등학교 (자양동),남여공학,,N,일반계,,전기,주간,19821207,37.5302454529249,127.075587591515
초등학교,공립,7134099,서울신양초등학교,Seoul Sinyang Elementary School,서울특별시성동광진교육지원청,5090,서울특별시 광진구 능동로 42,/ 신양초등학교 (자양동),남여공학,,N,일반계,,전기,주간,19790411,37.5346820949284,127.0699952764
초등학교,공립,7134098,서울송원초등학교,Seoul Songwon Elementary School,서울특별시성동광진교육지원청,4800,서울특별시 성동구 동일로43길 9,(송정동),남여공학,,N,해당없음,,전기,주간,20090301,37.5541592708709,127.069526172922
초등학교,공립,7134097,서울성자초등학교,Seoul Seongja Elementary School,서울특별시성동광진교육지원청,5102,서울특별시 광진구 뚝섬로56길 7,/ 서울성자초등학교 (자양동),남여공학,,N,일반계,,전기,주간,19840518,37.531493571169,127.083408323591
초등학교,공립,7134096,서울성수초등학교,Seoul Seongsu Elementary School,서울특별시성동광진교육지원청,4798,서울특별시 성동구 아차산로17길 21,(성수동2가),남여공학,,N,일반계,,전기,주간,19720901,37.5443378762673,127.062886077541
초등학교,공립,7134095,서울사근초등학교,Seoul Sageun Elementary School,서울특별시성동광진교육지원청,4761,서울특별시 성동구 사근동11길 16,(사근동/ 사근초등학교),남여공학,,N,일반계,,전기,주간,19670711,37.5626797138007,127.047573849243
초등학교,공립,7134094,서울무학초등학교,Seoul Muhak Elementary School,서울특별시성동광진교육지원청,4710,서울특별시 성동구 무학봉15길 21,/ 서울무학초등학교 (하왕십리동),남여공학,,N,일반계,,전기,주간,19150901,37.5632747388032,127.029643655901
초등학교,공립,7134093,서울마장초등학교,Seoul Majang Elementary School,서울특별시성동광진교육지원청,4753,서울특별시 성동구 마장로35나길 31,/ 서울마장초등학교 (마장동),남여공학,,N,해당없음,,전기,주간,20050301,37.5683388716972,127.041605053834
초등학교,공립,7134092,서울동호초등학교,Seoul Dongho Elementary School,서울특별시성동광진교육지원청,4731,서울특별시 성동구 매봉길 49-35,(옥수동/ 동호초등학교),남여공학,,N,해당없음,,전기,주간,20100301,37.5462920770572,127.009879731064
초등학교,공립,7134091,서울동자초등학교,Seoul Dongja Elementary School,서울특별시성동광진교육지원청,5069,서울특별시 광진구 뚝섬로 561,(자양동),남여공학,,N,일반계,,전기,주간,19841205,37.5350582094918,127.072179165371
초등학교,공립,7134090,서울동의초등학교,Seoul Dongeui Elementary School,서울특별시성동광진교육지원청,4948,서울특별시 광진구 영화사로 111,(구의동/서울동의초등학교),남여공학,,N,일반계,,전기,주간,19870709,37.5534224448219,127.099047310011
초등학교,공립,7134089,서울동명초등학교,Seoul Dongmyeong Elementary School,서울특별시성동광진교육지원청,4705,서울특별시 성동구 마장로29길 29,/ 서울동명초등학교 (마장동),남여공학,,N,일반계,,전기,주간,19441010,37.5681228514315,127.035108248567
초등학교,공립,7134088,서울금호초등학교,Seoul Geumho Elementary School,서울특별시성동광진교육지원청,4726,서울특별시 성동구 무수막길 69,/ 서울금호초등학교 (금호동2가),남여공학,,N,일반계,,전기,주간,19580401,37.5518979414195,127.020752859362
초등학교,공립,7134087,서울금옥초등학교,Seoul Geumok Elementary School,서울특별시성동광진교육지원청,4725,서울특별시 성동구 독서당로 251,(금호동4가/ 서울금옥초등학교),남여공학,,N,일반계,,전기,주간,19620412,37.5463023672305,127.017491634615
초등학교,공립,7134086,서울금북초등학교,Seoul Geumbuk Elementary School,서울특별시성동광진교육지원청,4721,서울특별시 성동구 행당로1길 13,/ 서울금북초등학교 (금호동1가),남여공학,,N,일반계,,전기,주간,19681126,37.5574954945237,127.023556547484
초등학교,공립,7134085,서울구의초등학교,Seoul Guui Elementary School,서울특별시성동광진교육지원청,5022,서울특별시 광진구 광나루로30길 49,/ 서울구의초등학교 (화양동),남여공학,,N,일반계,,전기,주간,19811226,37.5430074366803,127.08031177586
초등학교,공립,7134084,서울구남초등학교,Seoul Gunam Elementary School,서울특별시성동광진교육지원청,5048,서울특별시 광진구 구의강변로 69,/ 서울구남초등학교 (구의동),남여공학,,N,일반계,,전기,주간,19980301,37.5370965949427,127.092288798461
초등학교,공립,7134083,서울광진초등학교,Seoul Gwangjin Elementary School,서울특별시성동광진교육지원청,4980,서울특별시 광진구 자양로40길 41,/ 서울광진초등학교 (구의동),남여공학,,N,일반계,,전기,주간,20030901,37.5476114602117,127.091332532375
초등학교,공립,7134082,서울광장초등학교,Seoul Gwangjang Elementary School,서울특별시성동광진교육지원청,4966,서울특별시 광진구 광장로1길 27,/ 서울광장초등학교 (광장동),남여공학,,N,일반계,,전기,주간,19461110,37.5485492186653,127.101799885644
초등학교,공립,7134081,서울광남초등학교,Seoul Gwangnam Elementary School,서울특별시성동광진교육지원청,4973,서울특별시 광진구 아차산로70길 35,(광장동),남여공학,,N,일반계,,전기,주간,19900120,37.5409675314785,127.100704228215
초등학교,공립,7134080,서울경일초등학교,Seoul Gyeongil Elementary School,서울특별시성동광진교육지원청,4774,서울특별시 성동구 뚝섬로 332,(성수동1가),남여공학,,N,일반계,,전기,주간,19841031,37.5409418986185,127.046605149237
초등학교,공립,7134079,서울경수초등학교,Seoul Gyeongsu Elementary School,서울특별시성동광진교육지원청,4785,서울특별시 성동구 뚝섬로13길 22,(성수동2가/경수초등학교),남여공학,,N,일반계,,전기,주간,19820429,37.5404366739206,127.058066769768
초등학교,공립,7134078,서울경동초등학교,Seoul Kyungdong Elementary School,서울특별시성동광진교육지원청,4781,서울특별시 성동구 성수일로 34,(성수동1가/경동초등학교),남여공학,,N,일반계,,전기,주간,19131001,37.5438252989974,127.050074037135
초등학교,사립,7134077,경복초등학교,Kyungbok Elementary School,서울특별시성동광진교육지원청,4991,서울특별시 광진구 천호대로130길 58,/ 경복초등학교 (능동),남여공학,,N,일반계,,전기,주간,19650302,37.5498138606171,127.086793350213
중학교,사립,7132154,중앙대학교사범대학부속중학교,Chung-ang University Middle school,서울특별시동작관악교육지원청,6980,서울특별시 동작구 서달로 124,/ 중앙대학교사범대학부속중학교 (흑석동),남여공학,,N,일반계,,전기,주간,19340415,37.503629418993,126.961732578732
중학교,공립,7132153,장승중학교,Jangseung Middle School,서울특별시동작관악교육지원청,6963,서울특별시 동작구 장승배기로10가길 25,/ 장승중학교 (상도동),남여공학,,N,일반계,,전기,주간,19850424,37.5031485833795,126.940834004372
중학교,공립,7132152,인헌중학교,Inhun Middle School,서울특별시동작관악교육지원청,8795,서울특별시 관악구 인헌9길 35,/ 인헌중학교 (봉천동),남여공학,,N,일반계,,전기,주간,19710116,37.4726962122999,126.968840224171
중학교,공립,7132151,영등포중학교,Yeongdeungpo Middle School,서울특별시동작관악교육지원청,6933,서울특별시 동작구 등용로8길 5,/ 영등포중학교 (대방동),남여공학,,N,일반계,,전기,주간,19060407,37.5080846020876,126.933143484357
중학교,공립,7132150,신림중학교,Shillim Middle School,서울특별시동작관악교육지원청,8841,서울특별시 관악구 신림로 40,(신림동/신림중학교),남여공학,,N,일반계,,전기,주간,19731229,37.4703273364656,126.946003990797
중학교,공립,7132149,신관중학교,Shingwan Middle School,서울특별시동작관악교육지원청,8781,서울특별시 관악구 신림로48길 17-16,/ (신림동 신관중학교),남여공학,,N,일반계,,전기,주간,19840301,37.4802012453571,126.934452241482
중학교,사립,7132148,숭의여자중학교,Soongeui Girls Middle School,서울특별시동작관악교육지원청,6944,서울특별시 동작구 여의대방로36길 79,(대방동),여,,N,일반계,,전기,주간,19031031,37.507364139341,126.92924328346
중학교,사립,7132147,성보중학교,Sungbo Middle School,서울특별시동작관악교육지원청,8773,서울특별시 관악구 남부순환로156길 39,성보중학교 (신림동),남여공학,,N,일반계,,전기,주간,19811231,37.4807283676946,126.920957326353
중학교,사립,7132146,성남중학교,Sungnam Middle School,서울특별시동작관악교육지원청,6946,서울특별시 동작구 대방동길 74,(대방동),남,,N,일반계,,전기,주간,19380425,37.5052815748623,126.926615278225
중학교,사립,7132145,서울문영여자중학교,Seoul Moonyoung girls’ Middle School,서울특별시동작관악교육지원청,8833,서울특별시 관악구 관악로 85,(봉천동),여,,N,일반계,,전기,주간,19260401,37.4729045674501,126.950918062755
중학교,공립,7132144,상현중학교,Sang-Hyun Middle School,서울특별시동작관악교육지원청,7028,서울특별시 동작구 사당로2길 2-19,(상도동),남여공학,,N,일반계,,전기,주간,19680806,37.4941557795456,126.960607735677
중학교,공립,7132143,상도중학교,Sangdo Middle School,서울특별시동작관악교육지원청,7028,서울특별시 동작구 사당로2가길 72,/ 상도중학교 (사당동),남여공학,,N,일반계,,전기,주간,19681023,37.4909219003444,126.961475595626
중학교,공립,7132142,삼성중학교,Samsung Middle School,서울특별시동작관악교육지원청,8816,서울특별시 관악구 신림로3가길 39-24,(신림동/삼성중학교),남여공학,,N,일반계,,전기,주간,19701002,37.4676058987272,126.942513213832
중학교,공립,7132141,사당중학교,Sadang Middle School,서울특별시동작관악교육지원청,7003,서울특별시 동작구 사당로9가길 58,/ 사당중학교 (사당동),남여공학,,N,일반계,,전기,주간,19840109,37.4877611854985,126.968540661313
중학교,공립,7132140,봉원중학교,Bong-won Middle School,서울특별시동작관악교육지원청,8736,서울특별시 관악구 관악로24가길 15,/ 봉원중학교 (봉천동/봉원중학교),남여공학,,N,일반계,,전기,주간,19691111,37.4841027415012,126.958890911497
중학교,공립,7132139,봉림중학교,Bongrim Middle School,서울특별시동작관악교육지원청,8782,서울특별시 관악구 장군봉길 72,(봉천동),남여공학,,N,일반계,,전기,주간,19881224,37.4811981682395,126.937702673305
중학교,공립,7132138,미성중학교,Misung Middle School,서울특별시동작관악교육지원청,8863,서울특별시 관악구 문성로16길 40,(신림동),남여공학,,N,일반계,,전기,주간,19840109,37.4753828116217,126.912088901502
중학교,공립,7132137,문창중학교,Munchang Middle School,서울특별시동작관악교육지원청,7057,서울특별시 동작구 여의대방로22나길 40,(신대방동),남여공학,,N,일반계,,전기,주간,19810508,37.4958609410012,126.922405470441
중학교,공립,7132136,동작중학교,Dongjak Middle School,서울특별시동작관악교육지원청,6992,서울특별시 동작구 동작대로39가길 83,(동작동),남여공학,,N,일반계,,전기,주간,19841208,37.4954619461448,126.977801624632
중학교,사립,7132135,동양중학교,Dongyang Middle School,서울특별시동작관악교육지원청,6910,서울특별시 동작구 흑석로9길 94,/ 동양중학교 (흑석동),남,,N,일반계,,전기,주간,19510303,37.5102231403469,126.957477481379
중학교,공립,7132134,대방중학교,Daebang Middle School,서울특별시동작관악교육지원청,7064,서울특별시 동작구 여의대방로10길 24,(신대방동/ 대방중학교),남여공학,,N,일반계,,전기,주간,19720901,37.4954367843295,126.91301619957
중학교,공립,7132133,당곡중학교,Dang-gok Middle School,서울특별시동작관악교육지원청,8711,서울특별시 관악구 봉천로13길 101,/ 당곡중학교 (봉천동),남여공학,,N,일반계,,전기,주간,19821209,37.4923589008637,126.93267771353
중학교,공립,7132132,남성중학교,Namsung Middle School,서울특별시동작관악교육지원청,7022,서울특별시 동작구 남부순환로269길 166,(사당동/남성중학교),남여공학,,N,일반계,,전기,주간,19821209,37.4790082237647,126.97241407945
중학교,공립,7132131,남서울중학교,Namseoul Middle School,서울특별시동작관악교육지원청,8773,서울특별시 관악구 남부순환로172길 97,/ 남서울중학교 (신림동),남여공학,,N,일반계,,전기,주간,19641112,37.4821362472153,126.921037135349
중학교,사립,7132130,남강중학교,Namkang Middle School,서울특별시동작관악교육지원청,8854,서울특별시 관악구 난곡로34길 80,(신림동/남강중고등학교),남,,N,일반계,,전기,주간,19710130,37.4713756726623,126.924909105757
중학교,공립,7132129,난우중학교,Nanwoo Middle School,서울특별시동작관악교육지원청,8857,서울특별시 관악구 난곡로16길 32,/ 난우중학교 (신림동),남여공학,,N,일반계,,전기,주간,19840423,37.4668039555901,126.922828324577
중학교,공립,7132128,국사봉중학교,Kuksabong Middle School,서울특별시동작관악교육지원청,7038,서울특별시 동작구 양녕로20길 20,/ 국사봉중학교 (상도동),남여공학,,N,일반계,,전기,주간,19860119,37.493532631943,126.944055659373
중학교,공립,7132127,구암중학교,Guahm Middle School,서울특별시동작관악교육지원청,8723,서울특별시 관악구 성현로 53,(봉천동),남여공학,,N,해당없음,,전기,주간,20040301,37.4927662360841,126.949035651603
중학교,사립,7132126,광신중학교,Kwangshin Middle School,서울특별시동작관악교육지원청,8847,서울특별시 관악구 광신길 141,/ 광신중학교 (신림동),남여공학,,N,일반계,,전기,주간,19511010,37.4644762024804,126.925940565455
중학교,공립,7132125,관악중학교,Gwanak Middle School,서울특별시동작관악교육지원청,8741,서울특별시 관악구 남부순환로237길 60,/ 관악중학교 (봉천동),남여공학,,N,일반계,,전기,주간,19810225,37.4812582784976,126.961912338875
중학교,공립,7132124,강현중학교,Gang-hyeon Middle School,서울특별시동작관악교육지원청,6953,서울특별시 동작구 상도로13라길 22,/ 강현중학교 (상도동),남여공학,,N,일반계,,전기,주간,19680806,37.5031159857549,126.930756309893
중학교,공립,7132123,강남중학교,Gangnam Middle School,서울특별시동작관악교육지원청,6955,서울특별시 동작구 대방동15길 29,(대방동/ 강남중학교),남여공학,,N,일반계,,전기,주간,19590403,37.5027626308253,126.923346619702
초등학교,사립,7132122,중앙대학교사범대학부속초등학교,Elementary School Attached to College of Education/ Chung-Ang University,서울특별시동작관악교육지원청,6973,서울특별시 동작구 서달로 135,(흑석동/ 중앙대부속초등학교),남여공학,,N,일반계,,전기,주간,19641203,37.5054526406193,126.959677678275
초등학교,공립,7132121,서울흑석초등학교,Seoul Heukseok Elementary School,서울특별시동작관악교육지원청,6904,서울특별시 동작구 현충로 87,/ 서울흑석초등학교 (흑석동),남여공학,,N,일반계,,전기,주간,19680520,37.5082927226245,126.965132197137
초등학교,공립,7132120,서울행림초등학교,Seoul Haenglim Elementary School,서울특별시동작관악교육지원청,7031,서울특별시 동작구 솔밭로 47,(사당동/행림초등학교),남여공학,,N,일반계,,전기,주간,19920506,37.4828076065689,126.964964272271
초등학교,공립,7132119,서울청룡초등학교,Seoul Cheongryong Elementary School,서울특별시동작관악교육지원청,8833,서울특별시 관악구 관악로5길 61,(봉천동),남여공학,,N,일반계,,전기,주간,19851018,37.4767252713626,126.951284574125
초등학교,공립,7132118,서울조원초등학교,Seoul Jowon Elementary School,서울특별시동작관악교육지원청,8701,서울특별시 관악구 조원로 67,(신림동),남여공학,,N,해당없음,,전기,주간,20050301,37.484127765974,126.909505620969
초등학교,공립,7132117,서울인헌초등학교,Seoul Inhun Elementary School,서울특별시동작관악교육지원청,8792,서울특별시 관악구 낙성대로 23,(봉천동),남여공학,,N,일반계,,전기,주간,19791231,37.4767549867557,126.959863927435
초등학교,공립,7132116,서울은천초등학교,Seoul Euncheon Elementary School,서울특별시동작관악교육지원청,8716,서울특별시 관악구 은천로 69,(봉천동),남여공학,,N,일반계,,전기,주간,19580401,37.4865852040387,126.942679132637
초등학교,공립,7132115,서울은로초등학교,Seoul Eunlo Elementary School,서울특별시동작관악교육지원청,6973,서울특별시 동작구 서달로 115,/ 서울은로초등학교 (흑석동),남여공학,,N,일반계,,전기,주간,19081101,37.5031488793269,126.959999879057
초등학교,공립,7132114,서울원신초등학교,Seoul Wonshin Elementary School,서울특별시동작관악교육지원청,8846,서울특별시 관악구 광신길 177,/ 원신초등학교 (신림동),남여공학,,N,일반계,,전기,주간,20020710,37.4671982441555,126.92724089434
초등학교,공립,7132113,서울원당초등학교,Seoul Wondang Elementary School,서울특별시동작관악교육지원청,8739,서울특별시 관악구 봉천로 505,(봉천동),남여공학,,N,일반계,,전기,주간,19721209,37.4813287962774,126.955866680267
초등학교,공립,7132112,서울영화초등학교,Seoul Younghwa Elementary School,서울특별시동작관악교육지원청,6933,서울특별시 동작구 등용로8길 3,/ 서울영화초등학교 (대방동),남여공학,,N,일반계,,전기,주간,19620903,37.508900027765,126.932854796801
초등학교,공립,7132111,서울영본초등학교,Seoul Yeongbon Elementary School,서울특별시동작관악교육지원청,6915,서울특별시 동작구 만양로12가길 69,/ 서울영본초등학교 (본동),남여공학,,N,일반계,,전기,주간,19671127,37.5112986852985,126.948672422888
초등학교,공립,7132110,서울신우초등학교,Seoul Sinwoo Elementary School,서울특별시동작관악교육지원청,8823,서울특별시 관악구 호암로 498,/ 신우초등학교 (신림동),남여공학,,N,일반계,,전기,주간,19770901,37.4632639661407,126.932535274773
초등학교,공립,7132109,서울신성초등학교,Seoul Sinseong Elementary School,서울특별시동작관악교육지원청,8839,서울특별시 관악구 신림로 114,/ 서울신성초등학교 (신림동),남여공학,,N,일반계,,전기,주간,19820707,37.472003312266,126.936754150323
초등학교,공립,7132108,서울신상도초등학교,Seoul Sinsangdo Elementary School,서울특별시동작관악교육지원청,6967,서울특별시 동작구 장승배기로 14,(상도동/서울신상도초등학교),남여공학,,N,일반계,,전기,주간,19810909,37.5003481089602,126.944615912499
초등학교,공립,7132107,서울신봉초등학교,Seoul Sinbong Elementary School,서울특별시동작관악교육지원청,8747,서울특별시 관악구 양녕로6나길 1,(봉천동),남여공학,,N,일반계,,전기,주간,19810713,37.4855779476851,126.949130876206
초등학교,공립,7132106,서울신림초등학교,Seoul Sillim Elementary School,서울특별시동작관악교육지원청,8842,서울특별시 관악구 문성로28길 31,/ 서울신림초등학교 (신림동),남여공학,,N,일반계,,전기,주간,19700525,37.4771198534832,126.926876735629
초등학교,공립,7132105,서울신남성초등학교,Seoul Shinnamsung Elementary School,서울특별시동작관악교육지원청,7030,서울특별시 동작구 사당로 146,(사당동),남여공학,,N,일반계,,전기,주간,19750311,37.4881525400117,126.964869961919
초등학교,공립,7132104,서울신길초등학교,Seoul Sin-gil Elementary School,서울특별시동작관악교육지원청,6941,서울특별시 동작구 알마타길 16,(대방동),남여공학,,N,일반계,,전기,주간,19640312,37.5108716589577,126.926729245643
초등학교,공립,7132103,서울상현초등학교,SangHyeon Elementary School,서울특별시동작관악교육지원청,7039,서울특별시 동작구 상도로58길 21,(상도동),남여공학,,N,해당없음,,전기,주간,20120901,37.4948743920855,126.952669123087
초등학교,공립,7132102,서울상도초등학교,Seoul Sangdo Elementary School,서울특별시동작관악교육지원청,6961,서울특별시 동작구 성대로21길 62,(상도동/상도초등학교),남여공학,,N,일반계,,전기,주간,19660206,37.5003477700108,126.937269464805
초등학교,공립,7132101,서울삼일초등학교,Seoul Samil Elementary School,서울특별시동작관악교육지원청,7000,서울특별시 동작구 사당로23나길 27,/ 서울삼일초등학교 (사당동),남여공학,,N,해당없음,,전기,주간,20070901,37.4882593140973,126.975188515742
초등학교,공립,7132100,서울삼성초등학교,Seoul Samseong Elementary School,서울특별시동작관악교육지원청,8816,서울특별시 관악구 대학7길 52,/ 삼성초등학교 (신림동),남여공학,,N,일반계,,전기,주간,19720803,37.4685220375851,126.940492900894
초등학교,공립,7132099,서울사당초등학교,Seoul Sadang Elementary School,서울특별시동작관악교육지원청,8804,서울특별시 관악구 남현4길 51,/ 서울사당초등학교 (남현동),남여공학,,N,일반계,,전기,주간,19720713,37.4738362824827,126.973350114095
초등학교,공립,7132098,서울봉현초등학교,Seoul Bonghyun Elementary School,서울특별시동작관악교육지원청,8723,서울특별시 관악구 성현로 117,(봉천동/서울봉현초등학교),남여공학,,N,일반계,,전기,주간,20030106,37.491216536649,126.955351906576
초등학교,공립,7132097,서울봉천초등학교,Seoul Bongcheon Elementary School,서울특별시동작관악교육지원청,8736,서울특별시 관악구 행운1라길 17,/ 서울봉천초등학교 (봉천동/봉천초등학교),남여공학,,N,일반계,,전기,주간,19670915,37.4832696026874,126.958188446644
초등학교,공립,7132096,서울본동초등학교,Seoul Bondong Elementary School,서울특별시동작관악교육지원청,6907,서울특별시 동작구 노량진로26길 16-40,/ 서울본동초등학교 (본동),남여공학,,N,일반계,,전기,주간,19480825,37.5116955893248,126.954178212244
초등학교,공립,7132095,서울보라매초등학교,Seoul Boramae Elementary School,서울특별시동작관악교육지원청,7063,서울특별시 동작구 여의대방로16길 30,/ 서울보라매초등학교 (신대방동),남여공학,,N,해당없음,,전기,주간,20050301,37.4958518874539,126.916144507788
초등학교,공립,7132094,서울미성초등학교,Seoul Misung Elementary School,서울특별시동작관악교육지원청,8770,서울특별시 관악구 문성로 79,/ 서울미성초등학교 (신림동),남여공학,,N,일반계,,전기,주간,19800417,37.4783399695494,126.912392273996
초등학교,공립,7132093,서울문창초등학교,Seoul Munchang Elementary School,서울특별시동작관악교육지원청,7066,서울특별시 동작구 신대방2길 14,(신대방동/서울문창초등학교),남여공학,,N,일반계,,전기,주간,19460406,37.4889848307312,126.914840651122
초등학교,공립,7132092,서울동작초등학교,Seoul Dongjak Elementary School,서울특별시동작관악교육지원청,6992,서울특별시 동작구 동작대로29길 214,/ 서울동작초등학교 (사당동),남여공학,,N,일반계,,전기,주간,19820707,37.4941155017386,126.976508831738
초등학교,공립,7132091,서울대림초등학교,Seoul Daerim Elementary School,서울특별시동작관악교육지원청,6954,서울특별시 동작구 대방동1길 22,(대방동),남여공학,,N,일반계,,전기,주간,19730801,37.5006144491824,126.924883341048
초등학교,공립,7132090,서울당곡초등학교,Seoul Dang-gok Elementary School,서울특별시동작관악교육지원청,8711,서울특별시 관악구 보라매로2길 23,/ 23 (봉천동/당곡초등학교),남여공학,,N,일반계,,전기,주간,19740910,37.489969137285,126.92943747747
초등학교,공립,7132089,서울노량진초등학교,Seoul Noryangjin Elementary School,서울특별시동작관악교육지원청,6924,서울특별시 동작구 장승배기로 160,(노량진동),남여공학,,N,일반계,,전기,주간,19480320,37.5117503817584,126.940824161201
초등학교,공립,7132088,서울남성초등학교,Seoul Namseong Elementary School,서울특별시동작관악교육지원청,7005,서울특별시 동작구 사당로23길 57-14,(사당동/ 서울남성초등학교),남여공학,,N,일반계,,전기,주간,19670915,37.4845949762276,126.975487431394
초등학교,공립,7132087,서울남사초등학교,Seoul Namsa Elementary School,서울특별시동작관악교육지원청,7014,서울특별시 동작구 동작대로13길 22,(사당동),남여공학,,N,일반계,,전기,주간,19790927,37.4819434852498,126.978234131043
초등학교,공립,7132086,서울남부초등학교,Seoul Nambu Elementary School,서울특별시동작관악교육지원청,8763,서울특별시 관악구 남부순환로163길 14,/ 서울남부초등학교 (신림동),남여공학,,N,일반계,,전기,주간,19851008,37.4851194359099,126.922183775699
초등학교,공립,7132085,서울난향초등학교,Seoul Nanhyang Elementary School,서울특별시동작관악교육지원청,8859,서울특별시 관악구 난향길 9,(신림동/난향초등학교),남여공학,,N,일반계,,전기,주간,19810406,37.4628218910704,126.918336846046
초등학교,공립,7132084,서울난우초등학교,Seoul Nanwoo Elementary School,서울특별시동작관악교육지원청,8850,서울특별시 관악구 난우길 40,(신림동/난우초등학교),남여공학,,N,일반계,,전기,주간,19761203,37.4771057046827,126.91743563226
초등학교,공립,7132083,서울난곡초등학교,Seoul Nangok Elementary School,서울특별시동작관악교육지원청,8858,서울특별시 관악구 난곡로35길 102,(신림동/ 난곡초등학교),남여공학,,N,일반계,,전기,주간,19710422,37.4691282036291,126.916341558815
초등학교,공립,7132082,서울구암초등학교,Seoul Guam Elementary School,서울특별시동작관악교육지원청,8724,서울특별시 관악구 구암길 1,/ 서울구암초등학교 (봉천동),남여공학,,N,일반계,,전기,주간,19770211,37.4892174749954,126.946271723126
초등학교,공립,7132081,서울관악초등학교,Seoul Gwanak Elementary School,서울특별시동작관악교육지원청,8785,서울 관악구 청룡4길 49,/ 관악초등학교 (봉천동/관악초등학교),남여공학,,N,일반계,,전기,주간,19711204,37.4810256508565,126.942554490278
초등학교,공립,7132080,서울강남초등학교,Seoul Gangnam Elementary School,서울특별시동작관악교육지원청,6912,서울특별시 동작구 강남초등길 15,(상도1동),남여공학,,N,일반계,,전기,주간,19451102,37.5061581444679,126.953359141781
중학교,사립,7130275,상일중학교,Sang-il Middle School,서울특별시강동송파교육지원청,5282,서울특별시 강동구 천호대로219길 61,(상일동/ 상일여자중학교),여,,N,일반계,,전기,주간,19790221,37.5485874781342,127.170823536325
중학교,공립,7130271,위례솔중학교,Wiryesol Middle School,서울특별시강동송파교육지원청,5846,서울특별시 송파구 위례북로2길 10,/ 위례솔중학교 (거여동),남여공학,,N,해당없음,,후기,주간,20220301,37.4872591125777,127.150354996473
초등학교,공립,7130270,서울위례솔초등학교,SEOUL WIRYESOL ELEMENTARY SCHOOL,서울특별시강동송파교육지원청,5776,서울특별시 송파구 위례북로2길 12,/ 12,남여공학,,N,해당없음,,후기,주간,20220301,37.486734037842,127.150753871028
중학교,공립,7130268,강빛중학교,Gangbit middle school,서울특별시강동송파교육지원청,5201,서울특별시 강동구 아리수로93다길 1,(강일동/ 강빛초중통합학교),남여공학,,N,,,전후기,주간,20210301,37.5743433210453,127.170774922577
초등학교,공립,7130266,서울강빛초등학교,Seoul,서울특별시강동송파교육지원청,5201,서울특별시 강동구 아리수로93다길 1,(강일동/ 강빛초중통합학교),남여공학,,N,,,전후기,주야간,20210301,37.5743433210453,127.170774922577
초등학교,공립,7130264,서울고현초등학교,Seoul GoHyeon Elementary School,서울특별시강동송파교육지원청,5274,서울특별시 강동구 상일로11길 110,/ 서울고현초등학교,남여공학,,N,해당없음,,전기,주간,20200301,37.5538039438067,127.166050130468
중학교,공립,7130256,해누리중학교,Haenuri Middle School,서울특별시강동송파교육지원청,5698,서울특별시 송파구 송파대로37길 95,/ 해누리중학교 (가락동),남여공학,,N,,,전기,주간,20190301,37.4984115921213,127.102124196858
초등학교,공립,7130255,서울해누리초등학교,Seoul Haenuri Elementary School,서울특별시강동송파교육지원청,5698,서울특별시 송파구 송파대로37길 95,(가락동),남여공학,,N,,,전기,주간,20190301,37.4984115921213,127.102124196858
초등학교,공립,7130251,서울강솔초등학교,Seoul Gangsol Elementary School,서울특별시강동송파교육지원청,5214,서울특별시 강동구 고덕로97길 80,/ 서울강솔초등학교 (강일동),남여공학,,N,,,전기,주간,20170301,37.5618696246217,127.180267055739
초등학교,공립,7130245,서울위례별초등학교,Seoul Wiryebyeol Elementary School,서울특별시강동송파교육지원청,5850,서울특별시 송파구 위례광장로 243,/ 서울위례별초등학교 (장지동),남여공학,,N,,,후기,주간,20160301,37.479095771134,127.144971662016
중학교,사립,7130209,한영중학교,Hanyoung Middle School,서울특별시강동송파교육지원청,5279,서울특별시 강동구 동남로 832,/ 한영중학교 (상일동),남여공학,,N,일반계,,전기,주간,19330418,37.5490844724683,127.156927612469
중학교,공립,7130208,한산중학교,Hansan Middle School,서울특별시강동송파교육지원청,5371,서울특별시 강동구 풍성로 251,(둔촌동),남여공학,,N,일반계,,전기,주간,19900120,37.5289027355132,127.140303398101
중학교,공립,7130207,풍성중학교,Pungsung Middle School,서울특별시강동송파교육지원청,5506,서울특별시 송파구 강동대로2길 27,(풍납동/ 풍성중학교),남여공학,,N,일반계,,전기,주간,19910121,37.5252777887983,127.113130689958
중학교,공립,7130206,풍납중학교,Pungnap Middle School,서울특별시강동송파교육지원청,5506,서울특별시 송파구 올림픽로43길 20,(풍납동),남여공학,,N,일반계,,전기,주간,19821209,37.5253505135011,127.115628322635
중학교,공립,7130205,천호중학교,Cheonho Middle School,서울특별시강동송파교육지원청,5308,서울특별시 강동구 상암로 153,(천호동),남여공학,,N,일반계,,전기,주간,19691107,37.5465192580007,127.139697961268
중학교,공립,7130204,천일중학교,Cheonil Middle School,서울특별시강동송파교육지원청,5323,서울특별시 강동구 천중로 57,(천호동/천일중학교),남여공학,,N,일반계,,전기,주간,19940105,37.5458447527249,127.128196604109
중학교,사립,7130203,정신여자중학교,Chungshin Girls’ Middle School,서울특별시강동송파교육지원청,5571,서울특별시 송파구 올림픽로4길 16,/ 정신여자중학교 (잠실동),여,,N,일반계,,전기,주간,18871020,37.5094538398143,127.073847329188
중학교,공립,7130202,잠실중학교,Jamsil Middle School,서울특별시강동송파교육지원청,5504,서울특별시 송파구 올림픽로35길 130,(신천동),남여공학,,N,일반계,,전기,주간,19800124,37.5178175734411,127.098666197854
중학교,공립,7130201,잠신중학교,Jamsin Middle School,서울특별시강동송파교육지원청,5502,서울특별시 송파구 잠실로 12,/ 잠신중학교 (잠실동),남여공학,,N,일반계,,전기,주간,19840109,37.5160817484345,127.088243186371
중학교,사립,7130200,일신여자중학교,Ilsin Girls’ Middle School,서울특별시강동송파교육지원청,5676,서울특별시 송파구 송파대로38길 8,(송파동/일신여자중학교),여,,N,일반계,,전기,주간,19740301,37.5017941334924,127.114241325581
중학교,공립,7130199,오주중학교,Oju Middle School,서울특별시강동송파교육지원청,5728,서울특별시 송파구 동남로 281,(오금동/ 오주중학교),남여공학,,N,일반계,,전기,주간,19840109,37.5014842537875,127.136506477956
중학교,공립,7130198,오륜중학교,Oryun Middle School,서울특별시강동송파교육지원청,5649,서울특별시 송파구 양재대로 1242,(방이동/오륜중학교),남여공학,,N,일반계,,전기,주간,19881224,37.5162947747499,127.13852222328
중학교,공립,7130197,오금중학교,Ogeum Middle School,서울특별시강동송파교육지원청,5660,서울특별시 송파구 오금로35길 20,(오금동/오금중학교),남여공학,,N,일반계,,전기,주간,19861217,37.5052111047982,127.129112056324
중학교,사립,7130196,영파여자중학교,Young-Pa Girls’ Middle School,서울특별시강동송파교육지원청,5529,서울특별시 송파구 올림픽로 565,(풍납동),여,,N,일반계,,전기,주간,19671028,37.5327356176544,127.11973953985
중학교,공립,7130195,아주중학교,Aju Middle School,서울특별시강동송파교육지원청,5572,서울특별시 송파구 올림픽로4길 69,/ 아주중학교 (잠실동),남여공학,,N,일반계,,전기,주간,19861207,37.5052044945698,127.076298941322
중학교,공립,7130194,신천중학교,Sincheon Middle School,서울특별시강동송파교육지원청,5501,서울특별시 송파구 백제고분로 11,/ 신천중학교 (잠실동),남여공학,,N,일반계,,전기,주간,19751114,37.5162500127349,127.079283389854
중학교,공립,7130193,신암중학교,Sinam Middle School,서울특별시강동송파교육지원청,5238,서울특별시 강동구 고덕로 65,/ 신암중학교 (암사동),남여공학,,N,일반계,,전기,주간,19810504,37.5563616900258,127.133604335628
중학교,공립,7130192,신명중학교,Sinmyung Middle School,서울특별시강동송파교육지원청,5300,서울특별시 강동구 명일로24길 25,(길동),남여공학,,N,일반계,,전기,주간,19930110,37.5418144867925,127.149291882662
중학교,공립,7130191,송파중학교,Songpa Middle School,서울특별시강동송파교육지원청,5823,서울특별시 송파구 동남로 203,(가락동/ 송파중학교),남여공학,,N,일반계,,전기,주간,19780227,37.4959246234885,127.129932432189
중학교,공립,7130190,송례중학교,Songrye Middle School,서울특별시강동송파교육지원청,5853,서울특별시 송파구 위례순환로 429,(장지동),남여공학,,N,,,전기,주간,20140301,37.4778330100686,127.13973449828
중학교,공립,7130189,세륜중학교,Seryun Middle School,서울특별시강동송파교육지원청,5654,서울특별시 송파구 양재대로72길 41,(오금동/세륜중학교),남여공학,,N,일반계,,전기,주간,19911030,37.5089331446047,127.131246387027
중학교,사립,7130188,성덕여자중학교,Seongdeok Girls’ Middle School,서울특별시강동송파교육지원청,5306,서울특별시 강동구 구천면로 396,(천호동/ 성덕여자중학교),여,,N,일반계,,전기,주간,19761228,37.5498545397762,127.141541303447
중학교,공립,7130187,성내중학교,Seongnae Middle School,서울특별시강동송파교육지원청,5396,서울특별시 강동구 성안로7길 36,(성내동/성내중학교),남여공학,,N,일반계,,전기,주간,19841208,37.5290619074653,127.129117291814
중학교,공립,7130186,석촌중학교,Seokchon Middle School,서울특별시강동송파교육지원청,5706,서울특별시 송파구 송이로15길 13,(가락동),남여공학,,N,일반계,,전기,주간,19820107,37.5014549929626,127.121117352937
중학교,공립,7130185,서울체육중학교,Seoul Physical Education Middle School,서울특별시강동송파교육지원청,5541,서울특별시 송파구 강동대로 232,/ 서울체육중학교 (방이동),남여공학,,N,해당없음,,전기,주간,19710113,37.5223303821085,127.129822552593
중학교,사립,7130183,보인중학교,Boin Middle School,서울특별시강동송파교육지원청,5742,서울특별시 송파구 오금로49길 18,(오금동/ 보인중고등학교),남,,N,일반계,,전기,주간,19080608,37.4975692004431,127.139517839227
중학교,사립,7130182,보성중학교,Posung Middle School,서울특별시강동송파교육지원청,5649,서울특별시 송파구 양재대로 1278,(방이동/보성중고등학교),남,,N,일반계,,전기,주간,19060905,37.5200898870034,127.135729296295
중학교,사립,7130181,배재중학교,Paichai Middle School,서울특별시강동송파교육지원청,5234,서울특별시 강동구 고덕로 227,(고덕동/ 배재중학교),남,,N,일반계,,전기,주간,18850803,37.5550593859098,127.150247335505
중학교,사립,7130180,배명중학교,Baemyeong Middle School,서울특별시강동송파교육지원청,5598,서울특별시 송파구 삼학사로 11,(삼전동/배명중고등학교),남,,N,일반계,,전기,주간,19490307,37.4976894981876,127.095811765574
중학교,공립,7130179,방이중학교,Bang-i Middle School,서울특별시강동송파교육지원청,5546,서울특별시 송파구 오금로11길 64,(방이동/방이중학교),남여공학,,N,일반계,,전기,주간,19850412,37.5149508047144,127.113373673739
중학교,공립,7130178,방산중학교,Bangsan Middle School,서울특별시강동송파교육지원청,5645,서울특별시 송파구 오금로29길 31,(방이동/ 방산중학교),남여공학,,N,일반계,,전기,주간,19910221,37.5093439082296,127.121567809411
중학교,공립,7130177,문현중학교,MUNHYEON MIDDLE SCHOOL,서울특별시강동송파교육지원청,5811,서울특별시 송파구 충민로 99,(장지동/ 문현중학교),남여공학,,N,해당없음,,전기,주간,20090301,37.4805587972062,127.128244061598
중학교,공립,7130176,문정중학교,Munjeong Middle School,서울특별시강동송파교육지원청,5797,서울특별시 송파구 문정로 73,(문정동/ 문정중학교),남여공학,,N,일반계,,전기,주간,19900120,37.4883919978179,127.130286303121
중학교,공립,7130175,명일중학교,Myungil Middle School,서울특별시강동송파교육지원청,5230,서울특별시 강동구 양재대로156길 57,(고덕동/명일중학교),남여공학,,N,일반계,,전기,주간,19840109,37.5575954529053,127.147290485021
중학교,공립,7130174,둔촌중학교,Doonchon Middle School,서울특별시강동송파교육지원청,5367,서울특별시 강동구 진황도로61길 25-30,(둔촌동),남여공학,,N,일반계,,전기,주간,19860129,37.5308360856293,127.146331741485
중학교,사립,7130173,동신중학교,Dongshin Middle School,서울특별시강동송파교육지원청,5339,서울특별시 강동구 진황도로 72,(천호동/ 동신중학교),남여공학,,N,일반계,,전기,주간,19500516,37.5367695166843,127.134366593349
중학교,사립,7130172,동북중학교,Dongbuk Middle School,서울특별시강동송파교육지원청,5412,서울특별시 강동구 강동대로 305,(둔촌동),남,,N,일반계,,전기,주간,19530604,37.5202406144077,127.139450654266
중학교,공립,7130171,고덕중학교,Godeok Middle School,서울특별시강동송파교육지원청,5225,서울특별시 강동구 동남로82길 94,(고덕동),남여공학,,N,일반계,,전기,주간,19841130,37.5603666099645,127.161643516832
중학교,공립,7130170,거원중학교,Geowon Middle School,서울특별시강동송파교육지원청,5789,서울특별시 송파구 양산로2길 30,(거여동/거원중학교),남여공학,,N,일반계,,전기,주간,19971220,37.4876964764281,127.146542554504
중학교,공립,7130169,강일중학교,Gang-il Middle School,서울특별시강동송파교육지원청,5236,서울특별시 강동구 고덕로27길 12,(암사동414-17),남여공학,,N,일반계,,전기,주간,19821209,37.5553453453104,127.138008577115
중학교,공립,7130168,강명중학교,GANGMYOUNG MIDDLE SCHOOL,서울특별시강동송파교육지원청,5285,서울특별시 강동구 상일로12길 56,(강일동/ 강명중학교),남여공학,,N,해당없음,,전기,주간,20120301,37.5556127825867,127.174608361426
중학교,공립,7130167,강동중학교,GANGDONG MIDDLE SCHOOL,서울특별시강동송파교육지원청,5208,서울특별시 강동구 풍산로 237,/ 강동중학교 (강일동),남여공학,,N,해당없음,,전기,주간,20100301,37.5696502492074,127.177836046342
중학교,공립,7130166,가원중학교,Gawon Middle School,서울특별시강동송파교육지원청,5831,서울특별시 송파구 중대로10길 40-18,(가락동/가원중학교),남여공학,,N,일반계,,전기,주간,19881224,37.4909683312292,127.122978948911
중학교,공립,7130165,가락중학교,Karak Middle School,서울특별시강동송파교육지원청,5673,서울특별시 송파구 송이로 45,(송파동/가락중학교),남여공학,,N,일반계,,전기,주간,19860129,37.5023397085349,127.11897125744
초등학교,공립,7130164,서울한산초등학교,Seoul Hansan Elementary School,서울특별시강동송파교육지원청,5371,서울특별시 강동구 풍성로 261,(서울한산초등학교/ 둔촌동),남여공학,,N,일반계,,전기,주간,19900501,37.5286945837724,127.14107694998
초등학교,공립,7130163,서울풍성초등학교,Seoul Poongsung Elementary School,서울특별시강동송파교육지원청,5506,서울특별시 송파구 강동대로2길 13,/ (풍납동/풍성초등학교),남여공학,,N,일반계,,전기,주간,19910424,37.5262948567987,127.113488356711
초등학교,공립,7130162,서울풍납초등학교,Seoul Pungnap Elementary School,서울특별시강동송파교육지원청,5522,서울특별시 송파구 풍성로 43,(풍납동),남여공학,,N,일반계,,전기,주간,19800801,37.5352940632209,127.117532366819
초등학교,공립,7130161,서울평화초등학교,Seoul Pyeonghwa Elementary School,서울특별시강동송파교육지원청,5831,서울특별시 송파구 송파대로26길 22,/ 서울평화초등학교 (가락동),남여공학,,N,일반계,,전기,주간,19921021,37.4916183368483,127.122700488472
초등학교,공립,7130160,서울토성초등학교,Seoul Tosung Elementary School,서울특별시강동송파교육지원청,5533,서울특별시 송파구 풍성로20길 44,/ 서울토성초등학교 (풍납동),남여공학,,N,일반계,,전기,주간,19840421,37.5318963267968,127.115772382237
초등학교,공립,7130159,서울천호초등학교,Seoul Cheonho Elementary School,서울특별시강동송파교육지원청,5309,서울특별시 강동구 구천면로 310-11,(천호동/서울천호초등학교),남여공학,,N,일반계,,전기,주간,19440501,37.5477189664877,127.136592330295
초등학교,공립,7130158,서울천일초등학교,Seoul Cheonil Elementary School,서울특별시강동송파교육지원청,5330,서울특별시 강동구 구천면로 266,/ 서울천일초등학교 (천호동),남여공학,,N,일반계,,전기,주간,19851017,37.5443612197289,127.133436718515
초등학교,공립,7130157,서울천동초등학교,Seoul Cheondong Elementary School,서울특별시강동송파교육지원청,5341,서울특별시 강동구 성안로 200,/ 서울천동초등학교 (길동),남여공학,,N,일반계,,전기,주간,19821207,37.541015901733,127.137828727405
초등학교,공립,7130156,서울중대초등학교,Seoul Joongdae Elementary School,서울특별시강동송파교육지원청,5677,서울특별시 송파구 송파대로36길 8,(송파동),남여공학,,N,일반계,,전기,주간,19241113,37.4998119038214,127.113605457993
초등학교,공립,7130155,서울잠현초등학교,Seoul Jamhyun Elementary School,서울특별시강동송파교육지원청,5507,서울특별시 송파구 올림픽로37길 109,/ 서울잠현초등학교 (신천동),남여공학,,N,해당없음,,전기,주간,20080717,37.5225858707847,127.104722782408
초등학교,공립,7130154,서울잠전초등학교,Seoul Jamjeon Elementary School,서울특별시강동송파교육지원청,5568,서울특별시 송파구 올림픽로12길 51,/ 서울잠전초등학교 (잠실동),남여공학,,N,일반계,,전기,주간,19810909,37.5073379111889,127.083849903145
초등학교,공립,7130153,서울잠일초등학교,Seoul Jamil Elementary School,서울특별시강동송파교육지원청,5501,서울특별시 송파구 올림픽로 95,/ 서울잠일초등학교 (잠실동),남여공학,,N,일반계,,전기,주간,19760312,37.5147416618092,127.081636216984
초등학교,공립,7130152,서울잠실초등학교,Seoul Jamsil Elementary School,서울특별시강동송파교육지원청,5507,서울특별시 송파구 올림픽로35길 20,(신천동/잠실초등학교),남여공학,,N,일반계,,전기,주간,19751101,37.5201410422976,127.110799789543
초등학교,공립,7130151,서울잠신초등학교,Seoul Jamshin Elementary School,서울특별시강동송파교육지원청,5502,서울특별시 송파구 잠실로 32,/ 서울잠신초등학교 (잠실동),남여공학,,N,일반계,,전기,주간,19810805,37.5141481480252,127.087943541063
초등학교,공립,7130150,서울잠동초등학교,Seoul Jamdong Elementary School,서울특별시강동송파교육지원청,5504,서울특별시 송파구 올림픽로35길 122,(신천동/ 잠동초등학교),남여공학,,N,일반계,,전기,주간,19800929,37.51833846118,127.099930968918
초등학교,공립,7130149,서울위례초등학교,Seoul Wirye Elementary School,서울특별시강동송파교육지원청,5410,서울특별시 강동구 명일로 23,(둔촌동),남여공학,,N,일반계,,전기,주간,19811024,37.5223185221619,127.139436648101
초등학교,공립,7130148,서울오륜초등학교,Seoul Oryun Elementary School,서울특별시강동송파교육지원청,5649,서울특별시 송파구 양재대로 1196,/ 서울오륜초등학교 (방이동),남여공학,,N,일반계,,전기,주간,19881208,37.5124241077101,127.134509226551
초등학교,공립,7130147,서울오금초등학교,Seoul Ogum Elementary School,서울특별시강동송파교육지원청,5654,서울특별시 송파구 위례성대로22길 11,(오금동/ 서울오금초등학교),남여공학,,N,일반계,,전기,주간,19930720,37.5093182517637,127.13139228632
초등학교,공립,7130146,서울영풍초등학교,Seoul Youngpung Elementary School,서울특별시강동송파교육지원청,5744,서울특별시 송파구 오금로57길 15,/ 서울영풍초등학교 (거여동),남여공학,,N,일반계,,전기,주간,19821010,37.4961862376383,127.143214689204
초등학교,공립,7130145,서울아주초등학교,Seoul Aju Elementary School,서울특별시강동송파교육지원청,5572,서울특별시 송파구 올림픽로4길 59,/ 서울아주초등학교 (잠실동),남여공학,,N,일반계,,전기,주간,19861217,37.5057681062791,127.075264326216
초등학교,공립,7130144,서울신천초등학교,Seoul Sincheon Elementary School,서울특별시강동송파교육지원청,5503,서울특별시 송파구 올림픽로 215,(잠실동/ 주공아파트),남여공학,,N,일반계,,전기,주간,19590526,37.5140110979953,127.095048317128
초등학교,공립,7130143,서울신암초등학교,Seoul Shinam Elementary School,서울특별시강동송파교육지원청,5242,서울특별시 강동구 올림픽로93길 33-16,/ 서울신암초등학교 (암사동),남여공학,,N,일반계,,전기,주간,19801025,37.5500236743432,127.124404356441
초등학교,공립,7130142,서울신명초등학교,Seoul Sinmyeong Elementary School,서울특별시강동송파교육지원청,5300,서울특별시 강동구 명일로24길 33,/ 서울신명초등학교 (길동),남여공학,,N,일반계,,전기,주간,19820504,37.5409268527757,127.149979091111
초등학교,공립,7130141,서울신가초등학교,Seoul Sin-ga Elementary School,서울특별시강동송파교육지원청,5706,서울특별시 송파구 송이로 75,/ 서울신가초등학교 (가락동),남여공학,,N,일반계,,전기,주간,19880802,37.5003207198096,127.119700425145
초등학교,공립,7130140,서울송파초등학교,Seoul Songpa Elementary School,서울특별시강동송파교육지원청,5666,서울특별시 송파구 백제고분로 400,(송파동),남여공학,,N,일반계,,전기,주간,19851021,37.5069436363578,127.111231776462
초등학교,공립,7130139,서울송전초등학교,Seoul Songjeon Elementary School,서울특별시강동송파교육지원청,5607,서울특별시 송파구 석촌호수로 159,(잠실동),남여공학,,N,일반계,,전기,주간,19780511,37.5088290904649,127.095126460265
초등학교,공립,7130138,서울송례초등학교,Seoul Songrye Elementary School,서울특별시강동송파교육지원청,5853,서울특별시 송파구 위례순환로 439,(장지동),남여공학,,N,,,전기,주간,20140301,37.4778940251025,127.13849585496
초등학교,공립,7130137,서울세륜초등학교,Seoul Seryun Elementary School,서울특별시강동송파교육지원청,5649,서울특별시 송파구 양재대로 1264,/ 서울세륜초등학교 (방이동),남여공학,,N,일반계,,전기,주간,19881208,37.5185578094606,127.134163349933
초등학교,공립,7130136,서울성일초등학교,Seoul Seong-il Elementary School,서울특별시강동송파교육지원청,5396,서울특별시 강동구 성내로15길 33,/ 서울성일초등학교 (성내동),남여공학,,N,일반계,,전기,주간,19831006,37.5297092388513,127.128408263098
초등학교,공립,7130135,서울성내초등학교,Seoul Seongnae Elementary School,서울특별시강동송파교육지원청,5392,서울특별시 강동구 성내로3길 19,(성내동/ 서울성내초등학교),남여공학,,N,일반계,,전기,주간,19690301,37.5313578593416,127.122500139991
초등학교,공립,7130134,서울선사초등학교,Seoul Sunsa Elementary School,서울특별시강동송파교육지원청,5239,서울특별시 강동구 올림픽로 837,/ 서울선사초등학교 (암사동/ 서울선사초등학교),남여공학,,N,일반계,,전기,주간,20010901,37.5558469097869,127.12819596827
초등학교,공립,7130133,서울선린초등학교,Seoul Sunrin Elementary School,서울특별시강동송파교육지원청,5367,서울특별시 강동구 진황도로61길 29,/ 서울선린초등학교 (둔촌동),남여공학,,N,일반계,,전기,주간,19850701,37.5297601213047,127.145594039357
초등학교,공립,7130132,서울석촌초등학교,Seoul Seokchon Elementary School,서울특별시강동송파교육지원청,5689,서울특별시 송파구 가락로11길 26,/ 서울석촌초등학교 (석촌동),남여공학,,N,일반계,,전기,주간,19890807,37.5026256824387,127.105208116127
초등학교,공립,7130131,서울상일초등학교,Seoul Sang-il Elementary School,서울특별시강동송파교육지원청,5283,서울특별시 강동구 천호대로 1477,(상일동),남여공학,,N,일반계,,전기,주간,19211002,37.5475721706533,127.17266348564
초등학교,공립,7130130,서울삼전초등학교,Seoul Samjeon Elementary School,서울특별시강동송파교육지원청,5584,서울특별시 송파구 백제고분로28길 19,(삼전동),남여공학,,N,일반계,,전기,주간,19831007,37.5016998379239,127.093268923758
초등학교,공립,7130129,서울버들초등학교,Seoul Beodle Elementary School,서울특별시강동송파교육지원청,5555,서울특별시 송파구 석촌호수로 81,/ 서울버들초등학교 (잠실동),남여공학,,N,해당없음,,전기,주간,20070901,37.5102185018601,127.089274587416
초등학교,공립,7130128,서울방이초등학교,Seoul Bang-i Elementary School,서울특별시강동송파교육지원청,5636,서울특별시 송파구 위례성대로10길 4,/ 서울방이초등학교 (방이동),남여공학,,N,일반계,,전기,주간,19810909,37.5134391919291,127.120472535673
초등학교,공립,7130127,서울방산초등학교,Seoul Bangsan Elementary School,서울특별시강동송파교육지원청,5645,서울특별시 송파구 오금로27길 42,(방이동),남여공학,,N,일반계,,전기,주간,19911030,37.5095256781086,127.121180723257
초등학교,공립,7130126,서울문현초등학교,Seoul Munhyeon Elementary school,서울특별시강동송파교육지원청,5799,서울특별시 송파구 충민로 137,/ (서울문현초등학교) (장지동),남여공학,,N,해당없음,,전기,주간,20070901,37.482790915501,127.130257129876
초등학교,공립,7130125,서울문정초등학교,Seoul Munjeong Elementary School,서울특별시강동송파교육지원청,5797,서울특별시 송파구 문정로5길 20,/ 문정초등학교 (문정동),남여공학,,N,일반계,,전기,주간,19841205,37.4890774089099,127.129206175689
초등학교,공립,7130124,서울문덕초등학교,Seoul Moondeok Elementary School,서울특별시강동송파교육지원청,5809,서울특별시 송파구 송이로34길 60,(문정동),남여공학,,N,일반계,,전기,주간,19930720,37.4849801765904,127.127955835706
초등학교,공립,7130123,서울묘곡초등학교,Seoul Myogok Elementary School,서울특별시강동송파교육지원청,5232,서울특별시 강동구 동남로79길 46,(고덕동),남여공학,,N,일반계,,전기,주간,19850710,37.5587127850485,127.153093406496
초등학교,공립,7130122,서울명일초등학교,Seoul Myeong-il Elementary School,서울특별시강동송파교육지원청,5256,서울특별시 강동구 고덕로38길 8,(암사동/ 서울명일초등학교),남여공학,,N,일반계,,전기,주간,19800510,37.554553599981,127.142591145632
초등학교,공립,7130121,서울명원초등학교,Seoul Myeongwon Elementary School,서울특별시강동송파교육지원청,5268,서울특별시 강동구 명일로 364,/ 서울명원초등학교 (명일동),남여공학,,N,일반계,,전기,주간,19861217,37.5512878500966,127.15050016138
초등학교,공립,7130120,서울명덕초등학교,Seoul MyeongDeok Elementary School,서울특별시강동송파교육지원청,5230,서울특별시 강동구 양재대로156길 11,/ 서울명덕초등학교 (고덕동),남여공학,,N,일반계,,전기,주간,19841205,37.5567623333733,127.145081475071
초등학교,공립,7130119,서울마천초등학교,Seoul Macheon Elementary School,서울특별시강동송파교육지원청,5758,서울특별시 송파구 마천로61다길 24,/ 서울마천초등학교 (마천동),남여공학,,N,일반계,,전기,주간,19780201,37.4955054522697,127.152629450117
초등학교,공립,7130118,서울둔촌초등학교,Seoul Dunchon Elementary School,서울특별시강동송파교육지원청,5409,서울특별시 강동구 양재대로88길 27,/ 서울둔촌초등학교 (둔촌동),남여공학,,N,일반계,,전기,주간,19791220,37.5262199311307,127.137454081546
초등학교,공립,7130117,서울대명초등학교,Seoul Daemyeong Elementary School,서울특별시강동송파교육지원청,5271,서울특별시 강동구 상암로 271,(명일동/서울대명초등학교),남여공학,,N,일반계,,전기,주간,19860301,37.5476661505188,127.153270088887
초등학교,공립,7130116,서울남천초등학교,Seoul Namcheon Elementary School,서울특별시강동송파교육지원청,5745,서울특별시 송파구 성내천로 207,(마천동),남여공학,,N,일반계,,전기,주간,19831203,37.5014468253919,127.150764221035
초등학교,공립,7130115,서울길동초등학교,Seoul Gildong Elementary School,서울특별시강동송파교육지원청,5344,서울특별시 강동구 양재대로116길 69,/ 서울길동초등학교 (길동),남여공학,,N,일반계,,전기,주간,19730106,37.5385916779149,127.144972942492
초등학교,공립,7130114,서울고일초등학교,Seoul Goil Elementary School,서울특별시강동송파교육지원청,5275,서울특별시 강동구 구천면로93길 20,/ 서울고일초등학교 (상일동),남여공학,,N,일반계,,전기,주간,19831203,37.5515426236302,127.169410143976
초등학교,공립,7130113,서울고명초등학교,Seoul Gomyeong Elementary School,서울특별시강동송파교육지원청,5267,서울특별시 강동구 고덕로46길 53,/ 서울고명초등학교 (명일동),남여공학,,N,일반계,,전기,주간,19801129,37.5529725262612,127.147436202442
초등학교,공립,7130112,서울고덕초등학교,Seoul Goduk Elementary School,서울특별시강동송파교육지원청,5221,서울특별시 강동구 아리수로82길 42,/ 고덕초등학교 (고덕동),남여공학,,N,일반계,,전기,주간,19831203,37.5612936142528,127.166079880323
초등학교,공립,7130111,서울거원초등학교,Seoul Guhwon Elementary School,서울특별시강동송파교육지원청,5789,서울특별시 송파구 양산로2길 26,(거여동/거원초등학교),남여공학,,N,일반계,,전기,주간,19970901,37.4876250259462,127.144936130181
초등학교,공립,7130110,서울거여초등학교,Seoul Geoyeo Elementary School,서울특별시강동송파교육지원청,5731,서울특별시 송파구 마천로25길 18,(오금동/ 거여초등학교),남여공학,,N,일반계,,전기,주간,19670915,37.5050135180424,127.140932851276
초등학교,공립,7130109,서울개롱초등학교,Seoul Gaerong Elementary School,서울특별시강동송파교육지원청,5742,서울특별시 송파구 문정로 211,/ 서울개롱초등학교 (오금동),남여공학,,N,해당없음,,전기,주간,20071101,37.4973626123965,127.139888149341
초등학교,공립,7130108,서울강일초등학교,Seoul Gangil Elementary School,서울특별시강동송파교육지원청,5213,서울특별시 강동구 아리수로98길 24,/ 서울강일초등학교 (강일동),남여공학,,N,일반계,,전기,주간,19930720,37.565255684305,127.177212459316
초등학교,공립,7130107,서울강명초등학교,SEOUL GANGMYEONG  ELEMENTARY SCHOOL,서울특별시강동송파교육지원청,5285,서울특별시 강동구 상일로 74-1,(상일동),남여공학,,N,해당없음,,전기,주간,20110301,37.5547060358492,127.173374480645
초등학교,공립,7130106,서울강동초등학교,Seoul Gangdong Elementary School,서울특별시강동송파교육지원청,5322,서울특별시 강동구 상암로14길 77,(천호동/서울강동초등학교),남여공학,,N,일반계,,전기,주간,19760818,37.5463638024947,127.130187177341
초등학교,공립,7130105,서울강덕초등학교,Seoul Gangdeok Elementary School,서울특별시강동송파교육지원청,5225,서울특별시 강동구 동남로82길 94-54,(고덕동/ 서울강덕초등학교),남여공학,,N,일반계,,전기,주간,19861217,37.5595474750238,127.160483581978
초등학교,공립,7130104,서울가주초등학교,Seoul Gaju Elementary School,서울특별시강동송파교육지원청,5823,서울특별시 송파구 오금로40길 37,/ 서울가주초등학교 (가락동/ 가주초등학교),남여공학,,N,일반계,,전기,주간,19960810,37.4965672156015,127.129280370183
초등학교,공립,7130103,서울가원초등학교,Seoul Gawon Elementary School,서울특별시강동송파교육지원청,5834,서울특별시 송파구 중대로4길 8,(문정동/ 가원초등학교),남여공학,,N,일반계,,전기,주간,19881208,37.4894421482757,127.111027389828
초등학교,공립,7130102,서울가락초등학교,Seoul Garak Elementary School,서울특별시강동송파교육지원청,5698,서울특별시 송파구 송파대로37길 45,(가락동/ 가락초등학교),남여공학,,N,일반계,,전기,주간,19810909,37.4998746399971,127.107214872322
초등학교,공립,7130101,서울가동초등학교,Seoul Gadong Elementary School,서울특별시강동송파교육지원청,5820,서울특별시 송파구 중대로20길 47,(가락동),남여공학,,N,일반계,,전기,주간,19900425,37.497412272849,127.130015865874
중학교,공립,7121380,솔샘중학교,Solsaem Middle School,서울특별시성북강북교육지원청,1190,서울특별시 강북구 인수봉로 39,(미아동/ 솔샘중.고등학교),남여공학,,N,해당없음,,전기,주간,20090301,37.6237648476803,127.012068855446
중학교,국립,7121371,서울대학교사범대학부설중학교,Seoul National University Middle School,교육부,2796,서울특별시 성북구 월곡로 36,(종암동),남,,N,일반계,,전기,주간,19460901,37.5958204696388,127.039133268006
중학교,공립,7121370,숭곡중학교,Soonggok Middle School,서울특별시성북강북교육지원청,2736,서울특별시 성북구 종암로 208,/ 숭곡중학교 (하월곡동),남여공학,,N,해당없음,,후기,주간,20110113,37.6084784793818,127.031299801245
중학교,사립,7121369,영훈국제중학교,YoungHoon International Middle School,서울특별시성북강북교육지원청,1211,서울특별시 강북구 도봉로13가길 19,(미아동/학교법인영훈학원),남여공학,,N,일반계,,전기,주간,19690115,37.6146818749027,127.02809331872
중학교,사립,7121368,홍익대학교사범대학부속중학교,HONGIK University Middle School,서울특별시성북강북교육지원청,2835,서울특별시 성북구 성북로14가길 23,/ 홍익대학교사범대학부속중학교 (성북동/홍익대학교부속중고등학교),남,,N,일반계,,전기,주간,19540412,37.5936666161184,127.002804963597
중학교,사립,7121367,한성여자중학교,Hansung Girls’ Middle School,서울특별시성북강북교육지원청,2876,서울특별시 성북구 삼선교로16길 118,(삼선동2가/한성여자중학교),여,,N,일반계,,전기,주간,19451005,37.5819996035219,127.011312749775
중학교,사립,7121366,창문여자중학교,Changmun Girls’ Middle School,서울특별시성북강북교육지원청,1237,서울특별시 강북구 월계로 61,(송중동/ 창문여자중고등학교),여,,N,일반계,,전기,주간,19721010,37.6134009168268,127.035828005248
중학교,사립,7121365,신일중학교,Shinil Middle School,서울특별시성북강북교육지원청,1133,서울특별시 강북구 솔매로49길 20,(미아동/신일중고등학교),남,,N,일반계,,전기,주간,19661013,37.627967222367,127.028403050284
중학교,사립,7121364,성암여자중학교,Seong-am Girls’ Middle School,서울특별시성북강북교육지원청,1174,서울특별시 강북구 도봉로29길 52,(미아동/학교법인성암학원),여,,N,일반계,,전기,주간,19600114,37.6204135324231,127.023905892641
중학교,사립,7121363,성신여자중학교,Sungshin Girls’ Middle School,서울특별시성북강북교육지원청,2840,서울특별시 성북구 북악산로 918,(돈암동/성신여자중학교),여,,N,일반계,,전기,주간,19360428,37.5946226781717,127.023128563512
중학교,사립,7121362,서라벌중학교,Sorabol Middle School,서울특별시성북강북교육지원청,1006,서울특별시 강북구 삼양로155길 37-9,/ 서라벌중학교 (우이동),남,,N,일반계,,전기,주간,19560305,37.6569840292148,127.011488328327
중학교,사립,7121361,동구여자중학교,Dong-gu Girls’ Middle School,서울특별시성북강북교육지원청,2834,서울특별시 성북구 성북로8길 71,(성북동/동구여자중학교),여,,N,일반계,,전기,주간,19420617,37.5941065881018,127.008215538987
중학교,사립,7121360,남대문중학교,Namdaemun Middle School,서울특별시성북강북교육지원청,2763,서울특별시 성북구 한천로 660-30,(장위동/ 남대문중학교),남,,N,일반계,,전기,주간,19340520,37.6186331321948,127.055797131715
중학교,사립,7121359,고명중학교,Komyung Middle School,서울특별시성북강북교육지원청,2828,서울특별시 성북구 북악산로 870,(돈암동/고명중학교),남,,N,일반계,,전기,주간,19550315,37.5976746822279,127.019186925653
중학교,사립,7121358,고려대학교사범대학부속중학교,Korea University Middle School,서울특별시성북강북교육지원청,2708,서울특별시 성북구 정릉로 161,(정릉동/고려대학교사범대학부속중학교),남여공학,,N,일반계,,전기,주간,19680311,37.6080476933587,127.002616144531
중학교,공립,7121357,길음중학교,Gireum Middle School,서울특별시성북강북교육지원청,2723,서울특별시 성북구 길음로 144,/ 길음중학교 (길음동),남여공학,,N,해당없음,,전기,주간,20120301,37.6140334599191,127.017752359697
중학교,공립,7121356,화계중학교,Hwagye Middle School,서울특별시성북강북교육지원청,1095,서울특별시 강북구 화계사길 63,(수유동),남여공학,,N,일반계,,전기,주간,19701010,37.6325180593561,127.009709077901
중학교,공립,7121355,종암중학교,Jongam Middle School,서울특별시성북강북교육지원청,2809,서울특별시 성북구 종암로5길 80-17,(종암동/종암중학교),남여공학,,N,일반계,,전기,주간,19800409,37.5929705982625,127.031747584508
중학교,공립,7121354,장위중학교,Jangwi Middle School,서울특별시성북강북교육지원청,2743,서울특별시 성북구 장위로4길 70,(장위동/장위중학교),남여공학,,N,일반계,,전기,주간,19841208,37.6112817727174,127.040874553779
중학교,공립,7121353,인수중학교,Insu Middle School,서울특별시성북강북교육지원청,1015,서울특별시 강북구 인수봉로75길 10,(수유동/ 인수중학교),남여공학,,N,일반계,,전기,주간,19860129,37.6437719058609,127.009667145786
중학교,공립,7121352,월곡중학교,Wolgok Middle School,서울특별시성북강북교육지원청,2773,서울특별시 성북구 장월로 6,(상월곡동/월곡중학교),남여공학,,N,일반계,,전기,주간,19860129,37.6069816253061,127.048258795639
중학교,사립,7121351,용문중학교,Yongmoon Middle School,서울특별시성북강북교육지원청,2843,서울특별시 성북구 고려대로17가길 46,(안암동2가/ 용문중고등학교),남,,N,일반계,,전기,주간,19461012,37.5886903262008,127.024660795253
중학교,공립,7121350,수유중학교,Suyu Middle School,서울특별시성북강북교육지원청,1095,서울특별시 강북구 인수봉로37길 40,(수유동/수유중학교),남여공학,,N,일반계,,전기,주간,19720603,37.6312894231046,127.010319655123
중학교,공립,7121349,수송중학교,Soosong Middle School,서울특별시성북강북교육지원청,1061,서울특별시 강북구 한천로122길 21,(번동/수송중학교),남여공학,,N,일반계,,전기,주간,20001125,37.6367599332935,127.03358552315
중학교,공립,7121348,석관중학교,Seokgwan Middle School,서울특별시성북강북교육지원청,2782,서울특별시 성북구 한천로 526,(석관동/석관중학교),남여공학,,N,일반계,,전기,주간,19821209,37.6081401384291,127.066713123271
중학교,공립,7121347,삼선중학교,Samseon Middle School,서울특별시성북강북교육지원청,2833,서울특별시 성북구 동소문로3길 69,(동소문동4가/삼선중학교),남,,N,일반계,,전기,주간,19600219,37.5917443908697,127.007872876935
중학교,공립,7121346,삼각산중학교,Samgaksan Middle School,서울특별시성북강북교육지원청,1198,서울특별시 강북구 삼양로19길 141,/ 삼각산중학교 (미아동),남여공학,,N,일반계,,전기,주간,20030106,37.6160412359101,127.014342650437
중학교,공립,7121345,북악중학교,Bugak Middle School,서울특별시성북강북교육지원청,2812,서울특별시 성북구 정릉로12길 41,(정릉동/북악중학교),남여공학,,N,일반계,,전기,주간,19840110,37.6070090504822,127.001609529397
중학교,공립,7121344,번동중학교,Beondong Middle School,서울특별시성북강북교육지원청,1137,서울특별시 강북구 오현로35길 87,(번동/번동중학교),남여공학,,N,일반계,,전기,주간,19920301,37.6324556910711,127.036206363566
중학교,공립,7121342,개운중학교,Gaewoon Middle School,서울특별시성북강북교육지원청,2808,서울특별시 성북구 북악산로 935,(돈암동/개운중학교),남여공학,,N,해당없음,,전기,주간,20060301,37.5946266547149,127.024842114657
중학교,공립,7121341,강북중학교,Kangbuk Middle School,서울특별시성북강북교육지원청,1051,서울특별시 강북구 한천로150길 67,(수유동/ 강북중학교),남여공학,,N,일반계,,전기,주간,19801227,37.6449158953693,127.025373389048
초등학교,사립,7121340,우촌초등학교,Uchon Elementary School,서울특별시성북강북교육지원청,2831,서울특별시 성북구 성북로4길 52-1,(돈암동/우촌초등학교),남여공학,,N,일반계,,전기,주간,19650324,37.5956408923336,127.011400646113
초등학교,사립,7121339,영훈초등학교,Younghoon Elementary School,서울특별시성북강북교육지원청,1211,서울특별시 강북구 도봉로13가길 19,(미아동/학교법인영훈학원),남여공학,,N,일반계,,전기,주간,19650925,37.6146818749027,127.02809331872
초등학교,사립,7121338,성신초등학교,Sungshin Elementary School,서울특별시성북강북교육지원청,2840,서울특별시 성북구 북악산로 918,(돈암동/성신초등학교),남여공학,,N,일반계,,전기,주간,19650308,37.5946226781717,127.023128563512
초등학교,사립,7121337,매원초등학교,Maewon Elementary School,서울특별시성북강북교육지원청,2828,서울특별시 성북구 북악산로 870,(돈암동),남여공학,,N,일반계,,전기,주간,19631205,37.5976746822279,127.019186925653
초등학교,사립,7121336,대광초등학교,Daegwang Elementary School,서울특별시성북강북교육지원청,2859,서울특별시 성북구 안암로 5,(보문동7가/대광초등학교),남여공학,,N,일반계,,전기,주간,19651201,37.5791510372431,127.023445857158
초등학교,사립,7121335,광운초등학교,Kwangwoon Elementary School,서울특별시성북강북교육지원청,2763,서울특별시 성북구 한천로 694,/ 광운초등학교 (장위동/ 광운초등학교),남여공학,,N,일반계,,전기,주간,19651025,37.6190652238473,127.055077059291
초등학교,공립,7121334,서울화계초등학교,Seoul Hwagye Elementary School,서울특별시성북강북교육지원청,1158,서울특별시 강북구 솔매로50가길 25,(미아동),남여공학,,N,일반계,,전기,주간,19670915,37.6238849781413,127.02971619019
초등학교,공립,7121333,서울청덕초등학교,Seoul Cheongdeok Elementary School,서울특별시성북강북교육지원청,2706,서울특별시 성북구 정릉로9라길 11,(정릉동/서울청덕초등학교),남여공학,,N,일반계,,전기,주간,19670910,37.6120328876191,127.000333434653
초등학교,공립,7121332,서울정수초등학교,Seoul Jungsu Elementary School,서울특별시성북강북교육지원청,2813,서울특별시 성북구 정릉로24길 58,(정릉동/서울정수초등학교),남여공학,,N,일반계,,전기,주간,19860406,37.6037748856219,127.007718883621
초등학교,공립,7121331,서울정릉초등학교,Seoul Jeongneung Elementary School,서울특별시성북강북교육지원청,2701,서울특별시 성북구 솔샘로25가길 8,(정릉동/서울정릉초등학교),남여공학,,N,일반계,,전기,주간,19850710,37.6197915298294,127.005532713286
초등학교,공립,7121330,서울정덕초등학교,Seoul Jeongdeok Elementary School,서울특별시성북강북교육지원청,2826,서울특별시 성북구 아리랑로 63,(동소문동7가/서울정덕초등학교),남여공학,,N,일반계,,전기,주간,19461101,37.5982399496277,127.013421324355
초등학교,공립,7121329,서울장위초등학교,Seoul Jangwi Elementary School,서울특별시성북강북교육지원청,2769,서울특별시 성북구 장월로8가길 41,(장위동/서울장위초등학교),남여공학,,N,일반계,,전기,주간,19461211,37.6114425067997,127.050006419755
초등학교,공립,7121328,서울장월초등학교,Seoul Jangwol Elementary School,서울특별시성북강북교육지원청,2758,서울특별시 성북구 한천로101길 66,(장위동/ 서울장월초등학교),남여공학,,N,해당없음,,전기,주간,20060719,37.6219292248914,127.047320465849
초등학교,공립,7121327,서울장곡초등학교,Seoul Janggok Elementary School,서울특별시성북강북교육지원청,2754,서울특별시 성북구 장월로23길 16,(장위동/서울장곡초등학교),남여공학,,N,일반계,,전기,주간,19780222,37.6168600216767,127.048151233375
초등학교,공립,7121326,서울일신초등학교,Seoul Ilshin Elementary School,서울특별시성북강북교육지원청,2795,서울특별시 성북구 월곡로 74,(종암동/서울일신초등학교),남여공학,,N,일반계,,전기,주간,20000901,37.5988135716924,127.040178106531
초등학교,공립,7121325,서울인수초등학교,Seoul Insu Elementary School,서울특별시성북강북교육지원청,1020,서울특별시 강북구 인수봉로 269,(수유동/서울인수초등학교),남여공학,,N,일반계,,전기,주간,19820707,37.6430505301735,127.009135759866
초등학교,공립,7121324,서울유현초등학교,Seoul Yuhyeon Elementary School,서울특별시성북강북교육지원청,1095,서울특별시 강북구 인수봉로37길 24,(수유동/서울유현초등학교),남여공학,,N,일반계,,전기,주간,19740605,37.632286451855,127.011327052457
초등학교,공립,7121323,서울월곡초등학교,Seoul Wolgok Elementary School,서울특별시성북강북교육지원청,2747,서울특별시 성북구 장월로3길 42,(장위동/서울월곡초등학교),남여공학,,N,일반계,,전기,주간,19710901,37.6100244163153,127.046081036716
초등학교,공립,7121322,서울우이초등학교,Seoul Wooi Elementary School,서울특별시성북강북교육지원청,1085,서울특별시 강북구 삼양로99길 36,(수유동/서울우이초등학교),남여공학,,N,일반계,,전기,주간,19491002,37.6386058279529,127.014240485582
초등학교,공립,7121321,서울오현초등학교,Seoul Oh-hyun Elementary School,서울특별시성북강북교육지원청,1230,서울특별시 강북구 월계로 221,(번동/오현초등학교),남여공학,,N,일반계,,전기,주간,19911002,37.6232028439088,127.046225894356
초등학교,공립,7121320,서울안암초등학교,Seoul Anam Elementary School,서울특별시성북강북교육지원청,2850,서울특별시 성북구 고려대로7가길 39,(안암동2가/ 서울안암초등학교),남여공학,,N,일반계,,전기,주간,19560324,37.5871586956296,127.022098883314
초등학교,공립,7121319,서울숭인초등학교,Seoul Soong-in Elementary School,서울특별시성북강북교육지원청,2741,서울특별시 성북구 오패산로16길 37,(하월곡동/서울숭인초등학교),남여공학,,N,일반계,,전기,주간,19370401,37.6090977872099,127.038146527662
초등학교,공립,7121318,서울숭례초등학교,Seoul Sungrye Elementary School,서울특별시성북강북교육지원청,2811,서울특별시 성북구 종암로5길 14,(종암동/서울숭례초등학교),남여공학,,N,일반계,,전기,주간,19451101,37.594521188017,127.035297176327
초등학교,공립,7121317,서울숭덕초등학교,Seoul Soongduck Elementary School,서울특별시성북강북교육지원청,2718,서울특별시 성북구 정릉로 279,(정릉동/서울숭덕초등학교),남여공학,,N,일반계,,전기,주간,19450514,37.603819799563,127.013290960705
초등학교,공립,7121316,서울숭곡초등학교,Seoul Soong-gok Elementary School,서울특별시성북강북교육지원청,2736,서울특별시 성북구 종암로40길 30,(하월곡동/서울숭곡초등학교),남여공학,,N,일반계,,전기,주간,19720301,37.6084328380922,127.032815115145
초등학교,공립,7121315,서울수유초등학교,Seoul Suyu Elementary School,서울특별시성북강북교육지원청,1116,서울특별시 강북구 삼양로74길 39,/ 수유초등학교,남여공학,,N,일반계,,전기,주간,19670309,37.631249657314,127.020292410668
초등학교,공립,7121314,서울수송초등학교,Seoul Soosong Elementary School,서울특별시성북강북교육지원청,1061,서울특별시 강북구 한천로124길 14,(번동),남여공학,,N,일반계,,전기,주간,20010901,37.6373144075316,127.032917771185
초등학교,공립,7121313,서울송천초등학교,Seoul Songcheon Elementary School,서울특별시성북강북교육지원청,1208,서울특별시 강북구 삼양로20길 29,(미아동/서울송천초등학교),남여공학,,N,일반계,,전기,주간,19661216,37.614905195868,127.023735366645
초등학교,공립,7121312,서울송중초등학교,Seoul Songjoong Elementary School,서울특별시성북강북교육지원청,1165,서울특별시 강북구 오현로 9,(미아동/송중초등학교),남여공학,,N,일반계,,전기,주간,19830701,37.6174690796359,127.031996538921
초등학교,공립,7121311,서울성북초등학교,Seoul Seongbuk Elementary School,서울특별시성북강북교육지원청,2837,서울특별시 성북구 성북로 102-10,(성북동/서울성북초등학교),남여공학,,N,일반계,,전기,주간,19460901,37.5940538893567,126.99877539809
초등학교,공립,7121310,서울석관초등학교,Seoul Seokgwan Elementary School,서울특별시성북강북교육지원청,2783,서울특별시 성북구 돌곶이로22길 21,/ 서울석관초등학교 (석관동/서울석관초등학교),남여공학,,N,일반계,,전기,주간,19710525,37.6110220564376,127.058355255147
초등학교,공립,7121309,서울석계초등학교,Seoul Seokgye Elementary School,서울특별시성북강북교육지원청,2780,서울특별시 성북구 한천로58길 273,(석관동),남여공학,,N,해당없음,,전기,주간,20050301,37.6088136847633,127.069732061242
초등학교,공립,7121308,서울삼양초등학교,Seoul Samyang Elementary School,서울특별시성북강북교육지원청,1181,서울특별시 강북구 삼양로49길 17,(미아동/삼양초등학교),남여공학,,N,일반계,,전기,주간,19591110,37.6232955761621,127.016149099325
초등학교,공립,7121307,서울삼선초등학교,Seoul Samseon Elementary School,서울특별시성북강북교육지원청,2863,서울특별시 성북구 보문로29길 106,(삼선동3가/서울삼선초등학교),남여공학,,N,일반계,,전기,주간,19490901,37.5871415236472,127.012671844176
초등학교,공립,7121306,서울삼각산초등학교,Seoul Samgaksan Elementary School,서울특별시성북강북교육지원청,1198,서울특별시 강북구 삼양로19길 141,(미아동/삼각산초등학교),남여공학,,N,일반계,,전기,주간,20011231,37.6160412359101,127.014342650437
초등학교,공립,7121305,서울번동초등학교,Seoul Beondong Elementary School,서울특별시성북강북교육지원청,1224,서울특별시 강북구 오현로 204,(번동/번동초등학교),남여공학,,N,일반계,,전기,주간,19910325,37.6290238580608,127.040039390037
초등학교,공립,7121304,서울미양초등학교,Seoul Miyang Elementary School,서울특별시성북강북교육지원청,1187,서울특별시 강북구 솔샘로 195,(미아동/미양초등학교),남여공학,,N,일반계,,전기,주간,19710105,37.6215324222942,127.014133356491
초등학교,공립,7121303,서울미아초등학교,Seoul Mia Elementary School,서울특별시성북강북교육지원청,2724,서울특별시 성북구 삼양로 77,(길음동/ 서울미아초등학교),남여공학,,N,일반계,,전기,주간,19620328,37.6105876087904,127.021644405392
초등학교,공립,7121302,서울동신초등학교,Seoul Dongsin Elementary School,서울특별시성북강북교육지원청,2874,서울특별시 성북구 보문사길 50,(보문동3가/서울동신초등학교),남여공학,,N,일반계,,전기,주간,19481101,37.5832878743837,127.017057951549
초등학교,공립,7121301,서울돈암초등학교,Seoul Donam Elementary School,서울특별시성북강북교육지원청,2830,서울특별시 성북구 동소문로13길 38,(동소문동6가/서울돈암초등학교),남여공학,,N,일반계,,전기,주간,19440930,37.5937262094153,127.013004275409
초등학교,공립,7121300,서울길음초등학교,Seoul Gireum Elementary School,서울특별시성북강북교육지원청,2723,서울특별시 성북구 길음로 142,(길음동/서울길음초등학교),남여공학,,N,일반계,,전기,주간,19841205,37.6136311475404,127.016659970388
초등학교,공립,7121299,서울길원초등학교,Seoul Gilwon Elementary School,서울특별시성북강북교육지원청,2715,서울특별시 성북구 길음로15길 55,/ 서울길원초등학교 (길음동),남여공학,,N,해당없음,,전기,주간,20060105,37.6090646447836,127.01679961391
초등학교,공립,7121298,서울개운초등학교,Seoul Gaewoon Elementary School,서울특별시성북강북교육지원청,2806,서울특별시 성북구 정릉로48길 52,(돈암동/서울개운초등학교),남여공학,,N,일반계,,전기,주간,20020710,37.6018109508133,127.027404487079
중학교,공립,7091486,내곡중학교,NAEGOK MIDDLE SCHOOL,서울특별시강남서초교육지원청,6799,서울특별시 서초구 청계산로7길 9-20,(신원동),남여공학,,N,해당없음,,후기,주간,20180208,37.4520032504691,127.054444623274
초등학교,공립,7091469,서울자곡초등학교,Seoul Jagok Elementary School,서울특별시강남서초교육지원청,6373,서울특별시 강남구 자곡로 150,(자곡동),남여공학,,N,,,전기,주간,20140901,37.4720493601914,127.099482575625
초등학교,공립,7091468,서울율현초등학교,Seoul Yulhyeon Elementary School,서울특별시강남서초교육지원청,6370,서울특별시 강남구 밤고개로21길 15,/ 서울율현초등학교 (자곡동),남여공학,,N,,,전기,주간,20140828,37.474558700755,127.108265007698
중학교,공립,7091461,세곡중학교,Segok Middle School,서울특별시강남서초교육지원청,6374,서울특별시 강남구 자곡로 81,(자곡동/ 세곡중학교),남여공학,,N,일반계,,전기,주간,20121227,37.4719807276618,127.091886154779
초등학교,공립,7091460,서울우솔초등학교,Seoul Woosol Elementary School,서울특별시강남서초교육지원청,6767,서울특별시 서초구 양재대로2길 74,/ 서울우솔초등학교 (우면동),남여공학,,N,,,전기,주간,20130301,37.4570942208519,127.019275619438
초등학교,공립,7091458,서울세명초등학교,Seoul Semyung Elementary School,서울특별시강남서초교육지원청,6375,서울특별시 강남구 자곡로 55,/ 서울세명초등학교 (세곡동),남여공학,,N,,,전기,주간,20120830,37.4688571015783,127.091075885061
중학교,사립,7091457,휘문중학교,Whimoon Middle School,서울특별시강남서초교육지원청,6183,서울특별시 강남구 역삼로 541,(대치동),남,,N,일반계,,전기,주간,19060501,37.5052894535671,127.061993880621
중학교,사립,7091456,진선여자중학교,Jinseon Girls’ Middle School,서울특별시강남서초교육지원청,6213,서울특별시 강남구 선릉로85길 27,(역삼동/ 진선여자중학교),여,,N,일반계,,전기,주간,19761228,37.5023028920315,127.048286565491
중학교,사립,7091455,중동중학교,Joongdong Middle School,서울특별시강남서초교육지원청,6344,서울특별시 강남구 일원로8길 37,중동중학교,남,,N,일반계,,전기,주간,19060510,37.4885699031176,127.078681867052
중학교,사립,7091454,은성중학교,Eunseong Middle School,서울특별시강남서초교육지원청,6264,서울특별시 강남구 남부순환로359길 36,(도곡동/은광여자고등학교),남여공학,,N,일반계,,전기,주간,19550316,37.4883484513575,127.035021467585
중학교,사립,7091453,숙명여자중학교,Sookmyung Girls’ Middle School,서울특별시강남서초교육지원청,6277,서울특별시 강남구 남부순환로 2807,/ 숙명여자중학교,여,,N,일반계,,전기,주간,19060522,37.4914753613052,127.052612582715
중학교,사립,7091452,세화여자중학교,Sehwa Girls’ Middle School,서울특별시강남서초교육지원청,6548,서울특별시 서초구 신반포로 56-7,/ 세화여자중학교 (반포동/강당),여,,N,일반계,,전기,주간,19780218,37.5019964569165,126.994230013893
중학교,사립,7091451,서문여자중학교,Suhmoon Girls’ Middle School,서울특별시강남서초교육지원청,6565,서울특별시 서초구 동광로12길 84,(방배동),여,,N,일반계,,전기,주간,19781229,37.4889197255873,126.984545759343
중학교,사립,7091450,동덕여자중학교,Dong Duk Girls’ Middle School,서울특별시강남서초교육지원청,6700,서울특별시 서초구 효령로2길 123-5,(방배동/동덕여자중고등학교),여,,N,일반계,,전기,주간,19080427,37.4758460567445,126.992615816174
중학교,사립,7091449,단국대학교사범대학부속중학교,DANKOOK UNIVERSITY MIDDLE SCHOOL,서울특별시강남서초교육지원청,6278,서울특별시 강남구 도곡로64길 21,(대치동),남,,N,일반계,,전기,주간,19410525,37.4956174948977,127.057768228297
중학교,공립,7091448,청담중학교,Cheongdam Middle School,서울특별시강남서초교육지원청,6010,서울특별시 강남구 압구정로61길 36,(청담동/청담중학교),남여공학,,N,일반계,,전기,주간,19840301,37.5286597910311,127.044810120535
중학교,공립,7091447,이수중학교,Isu Middle School,서울특별시강남서초교육지원청,6689,서울특별시 서초구 방배중앙로3길 32,(방배동/이수중학교),남,,N,일반계,,전기,주간,19820107,37.4806300322796,126.989859045395
중학교,공립,7091446,원촌중학교,Wonchon Middle School,서울특별시강남서초교육지원청,6544,서울특별시 서초구 사평대로45길 10,(반포동/원촌중학교),남여공학,,N,일반계,,전기,주간,19821209,37.5063251046839,127.014699724248
중학교,공립,7091445,영동중학교,Youngdong Middle School,서울특별시강남서초교육지원청,6765,서울특별시 서초구 성촌길 14,(우면동/영동중학교),남여공학,,N,일반계,,전기,주간,19691111,37.465986287158,127.025140749981
중학교,공립,7091444,역삼중학교,Yeoksam Middle School,서울특별시강남서초교육지원청,6219,서울특별시 강남구 도곡로43길 10,(역삼동/역삼중학교),남여공학,,N,일반계,,전기,주간,19841208,37.4959294910052,127.04861289161
중학교,공립,7091443,언주중학교,Eonju Middle School,서울특별시강남서초교육지원청,6093,서울특별시 강남구 선릉로116길 57,/ 언주중학교,남여공학,,N,일반계,,전기,주간,19801227,37.5146531581428,127.046683245003
중학교,공립,7091442,언북중학교,Eonbuk Middle School,서울특별시강남서초교육지원청,6050,서울특별시 강남구 도산대로38길 27,(논현동/언북중학교),남여공학,,N,일반계,,전기,주간,19820107,37.5194111496903,127.033490549669
중학교,공립,7091441,언남중학교,Eonnam Middle School,서울특별시강남서초교육지원청,6780,서울특별시 서초구 동산로 55,(양재동/언남중학교),남여공학,,N,일반계,,전기,주간,19881224,37.4723026220168,127.043757102066
중학교,공립,7091440,압구정중학교,Apgujeong Middle School,서울특별시강남서초교육지원청,6003,서울특별시 강남구 압구정로 225,/ 압구정중학교 (압구정동/압구정중학교),남여공학,,N,일반계,,전기,주간,19830301,37.5302422355471,127.033002687736
중학교,공립,7091439,신사중학교,Sinsa Middle School,서울특별시강남서초교육지원청,6000,서울특별시 강남구 압구정로 123,(압구정동/신사중학교),남여공학,,N,일반계,,전기,주간,19840301,37.5246515742682,127.020918846207
중학교,공립,7091438,신반포중학교,Shinbanpo Middle School,서울특별시강남서초교육지원청,6504,서울특별시 서초구 신반포로19길 26,/ 신반포중학교 (반포동/신반포중학교),남여공학,,N,일반계,,전기,주간,19840109,37.5062653180781,126.996124207907
중학교,공립,7091437,신동중학교,Shindong Middle School,서울특별시강남서초교육지원청,6516,서울특별시 서초구 나루터로 27,/ 신동중학교 (잠원동/신동중학교),남여공학,,N,일반계,,전기,주간,19900120,37.5169158985011,127.012915373961
중학교,공립,7091436,신구중학교,Shingu Middle School,서울특별시강남서초교육지원청,6023,서울특별시 강남구 압구정로36길 17,(신사동/신구중학교),남여공학,,N,일반계,,전기,주간,19880202,37.5274422864928,127.031672730195
중학교,공립,7091435,수서중학교,Suseo Middle School,서울특별시강남서초교육지원청,6348,서울특별시 강남구 광평로59길 57,(수서동/수서중학교),남여공학,,N,일반계,,전기,주간,19930430,37.4912175755191,127.102355480301
중학교,공립,7091434,서초중학교,Seocho Middle School,서울특별시강남서초교육지원청,6670,서울특별시 서초구 반포대로13길 48,(서초동/서초중학교),남여공학,,N,일반계,,전기,주간,19790830,37.4854679830791,127.009230848074
중학교,공립,7091433,서일중학교,Seo-il Middle School,서울특별시강남서초교육지원청,6617,서울특별시 서초구 서운로21길 2,(서초동/서일중학교),남여공학,,N,일반계,,전기,주간,19861217,37.4985298571843,127.023220688907
중학교,공립,7091432,서운중학교,Seoun Middle School,서울특별시강남서초교육지원청,6623,서울특별시 서초구 서운로 115,(서초동/서운중학교),남여공학,,N,일반계,,전기,주간,19820107,37.4939485124964,127.024538241332
중학교,공립,7091431,봉은중학교,Bong-eun Middle School,서울특별시강남서초교육지원청,6079,서울특별시 강남구 영동대로128길 59,(삼성동),남여공학,,N,일반계,,전기,주간,19860129,37.5189766694152,127.062389351922
중학교,공립,7091430,방배중학교,Bangbae Middle School,서울특별시강남서초교육지원청,6589,서울특별시 서초구 동광로 144,(반포동/방배중학교),남여공학,,N,일반계,,전기,주간,19801227,37.494868265986,126.997827018537
중학교,공립,7091429,반포중학교,Banpo Middle School,서울특별시강남서초교육지원청,6502,서울특별시 서초구 신반포로 67,(반포동/반포중학교),남,,N,일반계,,전기,주간,19741227,37.5030523682879,126.991603997827
중학교,공립,7091428,도곡중학교,Dogok Middle School,서울특별시강남서초교육지원청,6273,서울특별시 강남구 언주로57길 31,(도곡동/도곡중학교),남여공학,,N,일반계,,전기,주간,19910121,37.4922937289635,127.044785558988
중학교,공립,7091427,대치중학교,Daechi Middle School,서울특별시강남서초교육지원청,6299,서울특별시 강남구 남부순환로378길 39,(도곡동/대치중학교),남여공학,,N,일반계,,전기,주간,19860129,37.4845775128634,127.047065232332
중학교,공립,7091426,대청중학교,Daecheong Middle School,서울특별시강남서초교육지원청,6289,서울특별시 강남구 양재천로 321,(대치동/ 대청중학교),남여공학,,N,일반계,,전기,주간,19870506,37.490348545788,127.058033515123
중학교,공립,7091425,대왕중학교,Daewang Middle School,서울특별시강남서초교육지원청,6362,서울특별시 강남구 광평로20길 7,(수서동/ 대왕중학교),남여공학,,N,일반계,,전기,주간,19940105,37.4834603317394,127.087338052671
중학교,공립,7091424,대명중학교,Daemyeong Middle School,서울특별시강남서초교육지원청,6183,서울특별시 강남구 역삼로87길 26,(대치동/ 대명중학교),남여공학,,N,일반계,,전기,주간,19900120,37.5063189430786,127.060778124521
중학교,공립,7091423,구룡중학교,Guryoung Middle School,서울특별시강남서초교육지원청,6318,서울특별시 강남구 선릉로 103,(개포동/구룡중학교),남여공학,,N,일반계,,전기,주간,19881224,37.4862129389068,127.056507505045
중학교,공립,7091422,경원중학교,Gyeongwon Middle School,서울특별시강남서초교육지원청,6521,서울특별시 서초구 신반포로33길 39,(잠원동/경원중학교),남여공학,,N,일반계,,전기,주간,19810301,37.5115815961934,127.009018254738
중학교,공립,7091421,개포중학교,Gaepo Middle School,서울특별시강남서초교육지원청,6321,서울특별시 강남구 선릉로 9,(개포동/개포중학교),남여공학,,N,일반계,,전기,주간,19821209,37.4807716705024,127.061533474252
중학교,공립,7091420,개원중학교,Gaewon Middle School,서울특별시강남서초교육지원청,6328,서울특별시 강남구 영동대로 101,/ 개원중학교 (개포동/개원중학교),남여공학,,N,일반계,,전기,주간,19841204,37.4915905275033,127.071900307455
초등학교,공립,7091419,서울우면초등학교,Seoul Woomyeon Elementary School,서울특별시강남서초교육지원청,6765,서울특별시 서초구 태봉로,59,남여공학,,N,해당없음,,전기,주간,20120301,37.4647104685256,127.02376930375
초등학교,공립,7091418,서울학동초등학교,Seoul Hakdong Elementary School,서울특별시강남서초교육지원청,6100,서울특별시 강남구 선릉로115길 42,/ 서울학동초등학교 (논현동),남여공학,,N,일반계,,전기,주간,19790126,37.512045952,127.039435597045
초등학교,공립,7091417,서울포이초등학교,Seoul Po-i Elementary School,서울특별시강남서초교육지원청,6311,서울특별시 강남구 개포로22길 87,/ 서울포이초등학교 (개포동/포이초등학교),남여공학,,N,일반계,,전기,주간,19901024,37.4758166247606,127.052045721323
초등학교,공립,7091416,서울청담초등학교,Seoul Cheongdam Elementary School,서울특별시강남서초교육지원청,6010,서울특별시 강남구 압구정로71길 9,(청담동/청담초등학교),남여공학,,N,일반계,,전기,주간,19800301,37.5282818704161,127.045153024716
초등학교,공립,7091415,서울잠원초등학교,Seoul Jamwon Elementary School,서울특별시강남서초교육지원청,6547,서울특별시 서초구 신반포로16길 15-25,(반포동/ 잠원초등학교),남여공학,,N,일반계,,전기,주간,19780830,37.5018590933365,126.9983875282
초등학교,공립,7091414,서울일원초등학교,Seoul Ilwon Elementary School,서울특별시강남서초교육지원청,6345,서울특별시 강남구 영동대로4길 20,(일원동/일원초등학교),남여공학,,N,일반계,,전기,주간,19841010,37.4898127052732,127.076141940265
초등학교,공립,7091413,서울이수초등학교,Seoul Isu Elementary School,서울특별시강남서초교육지원청,6692,서울특별시 서초구 방배천로4길 23,서울이수초등학교 (방배동/이수초등학교),남여공학,,N,일반계,,전기,주간,19770901,37.478154046743,126.984039673727
초등학교,공립,7091412,서울원촌초등학교,Seoul Wonchon Elementary School,서울특별시강남서초교육지원청,6544,서울특별시 서초구 사평대로45길 26,(반포동/서울원촌초등학교),남여공학,,N,일반계,,전기,주간,19790918,37.5062446440008,127.012346682947
초등학교,공립,7091411,서울원명초등학교,Seoul Wonmyong Elementary School,서울특별시강남서초교육지원청,6602,서울특별시 서초구 고무래로 90-6,(서초동/원명초등학교),남여공학,,N,일반계,,전기,주간,19890704,37.5007499044884,127.017066977739
초등학교,공립,7091410,서울우암초등학교,Seoul Wooam Elementary School,서울특별시강남서초교육지원청,6762,서울특별시 서초구 바우뫼로7길 38,(우면동/우암초등학교),남여공학,,N,일반계,,전기,주간,19940805,37.4722955480804,127.02372343403
초등학교,공립,7091409,서울왕북초등학교,Seoul Wangbuk Elementary School,서울특별시강남서초교육지원청,6353,서울특별시 강남구 광평로31길 74,(수서동/왕북초등학교),남여공학,,N,일반계,,전기,주간,19631031,37.4862610232719,127.086237195421
초등학교,공립,7091408,서울영희초등학교,Seoul Younghee Elementary School,서울특별시강남서초교육지원청,6338,서울특별시 강남구 일원로 21,(일원동/영희초등학교),남여공학,,N,일반계,,전기,주간,19461001,37.4923003980946,127.081132787699
초등학교,공립,7091407,서울역삼초등학교,Seoul Yeoksam Elementary School,서울특별시강남서초교육지원청,6251,서울특별시 강남구 강남대로66길 21,(역삼동/역삼초등학교),남여공학,,N,일반계,,전기,주간,19780721,37.4931444060362,127.032564910969
초등학교,공립,7091406,서울언주초등학교,Seoul Eonju Elementary School,서울특별시강남서초교육지원청,6268,서울특별시 강남구 남부순환로363길 19,(도곡동/언주초등학교),남여공학,,N,일반계,,전기,주간,19270916,37.4863219964306,127.03679299115
초등학교,공립,7091405,서울언북초등학교,Seoul Eonbuk Elementary School,서울특별시강남서초교육지원청,6066,서울특별시 강남구 삼성로135길 42,(청담동/언북초등학교),남여공학,,N,일반계,,전기,주간,19450401,37.520125172379,127.044715764538
초등학교,공립,7091404,서울언남초등학교,Seoul Eonnam Elementary School,서울특별시강남서초교육지원청,6800,서울특별시 서초구 헌릉로8길 42,(내곡동),남여공학,,N,일반계,,전기,주간,19340416,37.4541133292306,127.061436582525
초등학교,공립,7091403,서울양전초등학교,Seoul Yangjeon Elementary School,서울특별시강남서초교육지원청,6328,서울특별시 강남구 개포로 513,/ 서울양전초등학교,남여공학,,N,일반계,,전기,주간,19881221,37.4902478541395,127.069170862479
초등학교,공립,7091402,서울양재초등학교,Seoul Yangjae Elementary School,서울특별시강남서초교육지원청,6755,서울특별시 서초구 바우뫼로18길 14,(양재동/양재초등학교),남여공학,,N,일반계,,전기,주간,19830719,37.4741653841614,127.03189250195
초등학교,공립,7091401,서울압구정초등학교,Seoul Apgujeong Elementary School,서울특별시강남서초교육지원청,6004,서울특별시 강남구 압구정로39길 29,(압구정동/압구정초등학교),남여공학,,N,일반계,,전기,주간,19760820,37.5317391125935,127.030841741797
초등학교,공립,7091400,서울신중초등학교,Seoul Sinjung Elementary School,서울특별시강남서초교육지원청,6712,서울특별시 서초구 남부순환로317길 15,(서초동/서울신중초등학교),남여공학,,N,일반계,,전기,주간,19360601,37.4801578791721,127.009343254537
초등학교,공립,7091399,서울신동초등학교,Seoul Sindong Elementary School,서울특별시강남서초교육지원청,6517,서울특별시 서초구 나루터로 15,(잠원동/신동초등학교),남여공학,,N,일반계,,전기,주간,19460402,37.5171300437436,127.011390388152
초등학교,공립,7091398,서울신구초등학교,Seoul Shingu Elementary School,서울특별시강남서초교육지원청,6029,서울특별시 강남구 압구정로18길 28,(신사동/신구초등학교),남여공학,,N,일반계,,전기,주간,19811103,37.5233605741978,127.023992427855
초등학교,공립,7091397,서울수서초등학교,Seoul Suseo Elementary School,서울특별시강남서초교육지원청,6348,서울특별시 강남구 광평로51길 46,(수서동/수서초등학교),남여공학,,N,일반계,,전기,주간,19920715,37.4911373654824,127.10185783552
초등학교,공립,7091396,서울서초초등학교,Seoul Seocho Elementary School,서울특별시강남서초교육지원청,6613,서울특별시 서초구 서운로 178,(서초동/서초초등학교),남여공학,,N,일반계,,전기,주간,19801004,37.4990487668755,127.024891501335
초등학교,공립,7091395,서울서일초등학교,Seoul Seoil Elementary School,서울특별시강남서초교육지원청,6723,서울특별시 서초구 남부순환로339길 38,(서초동/서일초등학교),남여공학,,N,일반계,,전기,주간,19861016,37.4852977769965,127.02215975144
초등학교,공립,7091394,서울서이초등학교,Seoul Seoi Elementary School,서울특별시강남서초교육지원청,6630,서울특별시 서초구 서운로 35,(서초동/서이초등학교),남여공학,,N,일반계,,전기,주간,19831203,37.491564668711,127.025618024318
초등학교,공립,7091393,서울서원초등학교,Seoul Seowon Elementary School,서울특별시강남서초교육지원청,6598,서울특별시 서초구 고무래로 63,/ 서울서원초등학교 (반포동),남여공학,,N,일반계,,전기,주간,19841130,37.5024388979462,127.014619457733
초등학교,공립,7091392,서울서래초등학교,Seoul Seorae Elementary School,서울특별시강남서초교육지원청,6574,서울특별시 서초구 방배로 260,(방배동/서래초등학교),남여공학,,N,일반계,,전기,주간,19830404,37.4964040023549,126.990156472861
초등학교,공립,7091391,서울삼릉초등학교,Seoul Samreung Elementary School,서울특별시강남서초교육지원청,6097,서울특별시 강남구 봉은사로63길 22,(삼성동/삼릉초등학교),남여공학,,N,일반계,,전기,주간,19850429,37.5132582999042,127.047172253926
초등학교,공립,7091390,서울봉은초등학교,Seoul Bong-eun Elementary School,서울특별시강남서초교육지원청,6078,서울특별시 강남구 학동로 610,(삼성동/봉은초등학교),남여공학,,N,일반계,,전기,주간,19820407,37.5200478271392,127.060746725412
초등학교,공립,7091389,서울방현초등학교,Seoul Banghyun Elementary School,서울특별시강남서초교육지원청,6700,서울특별시 서초구 효령로4길 58,(방배동/방현초등학교),남여공학,,N,해당없음,,전기,주간,19900406,37.4765029769283,126.990073388581
초등학교,공립,7091388,서울방일초등학교,Seoul Bang-il Elementary School,서울특별시강남서초교육지원청,6663,서울특별시 서초구 방배로18길 52,(방배동),남여공학,,N,일반계,,전기,주간,19840730,37.4852056040312,126.998848974708
초등학교,공립,7091387,서울방배초등학교,Seoul Bangbae Elementary School,서울특별시강남서초교육지원청,6570,서울특별시 서초구 방배중앙로13길 26,(방배동/방배초등학교),남여공학,,N,일반계,,전기,주간,19750912,37.4867641043401,126.987137986274
초등학교,공립,7091386,서울반포초등학교,Seoul Banpo Elementary School,서울특별시강남서초교육지원청,6502,서울특별시 서초구 신반포로 55-4,/ 서울반포초등학교 (반포동/반포초등학교),남여공학,,N,일반계,,전기,주간,19740320,37.5024848344961,126.991741582915
초등학교,공립,7091385,서울반원초등학교,Seoul Banwon Elementary School,서울특별시강남서초교육지원청,6510,서울특별시 서초구 잠원로3길 28,(잠원동/반원초등학교),남여공학,,N,일반계,,전기,주간,19810805,37.5103872227025,127.004236132457
초등학교,공립,7091384,서울매헌초등학교,Seoul Maeheon Elementary School,서울특별시강남서초교육지원청,6780,서울특별시 서초구 언남길 8,(양재동/매헌초등학교),남여공학,,N,해당없음,,전기,주간,20080301,37.4712624819608,127.042057861972
초등학교,공립,7091383,서울도성초등학교,Seoul Doseong Elementary School,서울특별시강남서초교육지원청,6213,서울특별시 강남구 역삼로 313,(역삼동/도성초등학교),남여공학,,N,일반계,,전기,주간,19810613,37.5014620128395,127.048872178861
초등학교,공립,7091382,서울도곡초등학교,Seoul Dogok Elementary School,서울특별시강남서초교육지원청,6205,서울특별시 강남구 선릉로64길 33,(대치동/ 도곡초등학교),남여공학,,N,일반계,,전기,주간,19740901,37.4995114113359,127.054465527162
초등학교,공립,7091381,서울대현초등학교,Seoul Daehyun Elementary School,서울특별시강남서초교육지원청,6187,서울특별시 강남구 역삼로98길 16,(대치동/대현초등학교),남여공학,,N,일반계,,전기,주간,19841205,37.5034861238053,127.063292075669
초등학교,공립,7091380,서울대치초등학교,Seoul Daechi Elementary School,서울특별시강남서초교육지원청,6291,서울특별시 강남구 양재천로 363,(대치동/ 대치초등학교),남여공학,,N,일반계,,전기,주간,19840509,37.4912865672214,127.06197065881
초등학교,공립,7091379,서울대청초등학교,Seoul Daecheong Elementary School,서울특별시강남서초교육지원청,6341,서울특별시 강남구 양재대로55길 28,/ 서울대청초등학교 (일원동),남여공학,,N,일반계,,전기,주간,19930227,37.4931480982967,127.087767273125
초등학교,공립,7091378,서울대진초등학교,Seoul Daejin Elementary School,서울특별시강남서초교육지원청,6334,서울특별시 강남구 개포로109길 74,/ 서울대진초등학교 (개포동),남여공학,,N,일반계,,전기,주간,19920715,37.4970275687873,127.077861373551
초등학교,공립,7091377,서울대왕초등학교,Seoul Daewang Elementary School,서울특별시강남서초교육지원청,6365,서울특별시 강남구 헌릉로618길 8,(세곡동/대왕초등학교),남여공학,,N,일반계,,전기,주간,19321125,37.4646391801831,127.105303959604
초등학교,공립,7091376,서울대모초등학교,Seoul Daemo Elementary School,서울특별시강남서초교육지원청,6363,서울특별시 강남구 광평로20길 27,/ 대모초등학교 (일원동/대모초등학교),남여공학,,N,일반계,,전기,주간,19940805,37.4805984530071,127.085993825956
초등학교,공립,7091375,서울대도초등학교,Seoul Daedo Elementary School,서울특별시강남서초교육지원청,6277,서울특별시 강남구 선릉로 209,(도곡동/ 서울대도초등학교),남여공학,,N,일반계,,전기,주간,19790327,37.4925857669174,127.053206571031
초등학교,공립,7091374,서울대곡초등학교,Seoul Daegok Elementary School,서울특별시강남서초교육지원청,6288,서울특별시 강남구 남부순환로 3022,/ 서울대곡초등학교 (대치동/대곡초등학교),남여공학,,N,일반계,,전기,주간,19810909,37.4947106436849,127.065026465684
초등학교,공립,7091373,서울논현초등학교,Seoul Nonhyeon Elementary School,서울특별시강남서초교육지원청,6119,서울특별시 강남구 강남대로120길 33,(논현동/논현초등학교),남여공학,,N,일반계,,전기,주간,19721123,37.5084895751287,127.026222910697
초등학교,공립,7091372,서울구룡초등학교,Seoul Guryong Elementary School,서울특별시강남서초교육지원청,6305,서울특별시 강남구 개포로 263,(개포동/구룡초등학교),남여공학,,N,일반계,,전기,주간,19831130,37.4811973926876,127.051771435538
초등학교,공립,7091371,서울개포초등학교,Seoul Gaepo Elementary School,서울특별시강남서초교육지원청,6331,서울특별시 강남구 삼성로4길 30,(개포동/ 개포초등학교),남여공학,,N,일반계,,전기,주간,19830510,37.4863349159759,127.070310042973
초등학교,공립,7091370,서울개일초등학교,Seoul Gaeil Elementary School,서울특별시강남서초교육지원청,6323,서울특별시 강남구 개포로 401,/ 개일초등학교 (개포동/개일초등학교),남여공학,,N,일반계,,전기,주간,19871117,37.4862353839469,127.057790853452
초등학교,공립,7091369,서울개원초등학교,Seoul Gaewon Elementary School,서울특별시강남서초교육지원청,6321,서울특별시 강남구 선릉로 29,(개포동/개원초등학교),남여공학,,N,일반계,,전기,주간,19820920,37.4816184206457,127.058736338955
초등학교,사립,7091368,계성초등학교,Gyeseong Elementary School,서울특별시강남서초교육지원청,6504,서울특별시 서초구 신반포로19길 23,/ 계성초등학교 (반포동),남여공학,,N,일반계,,전기,주간,18820908,37.5049357208076,126.996654362592
초등학교,국립,7091367,서울교육대학교부설초등학교,Elementary School Affiliated with Seoul National University of Education,교육부,6639,서울특별시 서초구 서초중앙로 96,(서초동/서울교대초등학교),남여공학,,N,일반계,,전기,주간,19530131,37.4907404857731,127.015424537648
각종학교(중),사립,7081544,여명학교(중),Yeomyung School,서울특별시강서양천교육지원청,4630,서울특별시 중구 소파로 99,(남산동2가),남여공학,,N,,,전기,주간,20220301,37.5569031111925,126.985536502926
중학교,공립,7081540,마곡하늬중학교,MagokHanui,서울특별시강서양천교육지원청,7810,서울특별시 강서구 마곡서1로 16,(마곡동),남여공학,,N,,,전기,주간,20200301,37.5581678959806,126.820984775861
중학교,사립,7081524,화곡중학교,Hwagok Middle School,서울특별시강서양천교육지원청,7638,서울특별시 강서구 강서로45길 70,(내발산동/화곡중학교),남,,N,일반계,,전기,주간,19740105,37.5484055955739,126.832657307166
중학교,사립,7081523,영도중학교,Yeongdo Middle School,서울특별시강서양천교육지원청,7958,서울특별시 양천구 목동중앙남로 27,/ 영도중학교 (목동/강서고등학교),남,,N,일반계,,전기,주간,19380910,37.5363155693554,126.865771125825
중학교,사립,7081522,양정중학교,Yang Chung Middle School,서울특별시강서양천교육지원청,7985,서울특별시 양천구 안양천로 1039,(목동/ 양정고등학교),남,,N,일반계,,전기,주간,19050211,37.5353922607054,126.887734285049
중학교,사립,7081521,신정여자중학교,Shin Jeung Girls’ Middle School,서울특별시강서양천교육지원청,7736,서울특별시 강서구 등촌로13아길 20,신정여자중학교,여,,N,일반계,,전기,주간,19780130,37.5383814328153,126.857062195471
중학교,사립,7081520,봉영여자중학교,Bongyoung Girls’ Middle School,서울특별시강서양천교육지원청,8099,서울특별시 양천구 목동동로2길 68,(신정동/봉영여자중학교),여,,N,일반계,,전기,주간,19511008,37.5092159752312,126.86019842592
중학교,사립,7081519,명덕여자중학교,Myungduk Girls’ Middle School,서울특별시강서양천교육지원청,7633,서울특별시 강서구 강서로47길 34-10,(내발산동),여,,N,일반계,,전기,주간,19771230,37.5538694849081,126.8339773378
중학교,사립,7081518,마포중학교,Mapo Middle School,서울특별시강서양천교육지원청,7576,서울특별시 강서구 화곡로 403,/ 마포중학교 (전화 02-3663-2587),남,,N,일반계,,전기,주간,19500601,37.5600277060889,126.85286487714
중학교,사립,7081517,등촌중학교,Deung-chon Middle School,서울특별시강서양천교육지원청,7664,서울특별시 강서구 공항대로 484-12,(등촌동/등촌중학교),남여공학,,N,일반계,,전기,주간,19810130,37.5524822120704,126.859214787423
중학교,사립,7081516,덕원중학교,Deokwon Middle School,서울특별시강서양천교육지원청,7640,서울특별시 강서구 강서로45길 91-44,(내발산동/덕원중학교),남여공학,,N,일반계,,전기,주간,19780429,37.5486225773288,126.829024518952
중학교,공립,7081515,마곡중학교,Magok Middle School,서울특별시강서양천교육지원청,7598,서울특별시 강서구 마곡중앙5로 58,(마곡동),남여공학,,N,해당없음,,후기,주간,20150109,37.5680344018763,126.821325984502
중학교,공립,7081514,화원중학교,Hwawon Middle School,서울특별시강서양천교육지원청,7764,서울특별시 강서구 강서로17나길 86,(화곡동/화원중학교),남여공학,,N,일반계,,전기,주간,19950111,37.5362140896668,126.842413481543
중학교,공립,7081513,월촌중학교,Wolchon Middle School,서울특별시강서양천교육지원청,7984,서울특별시 양천구 목동서로 31,(목동/서울월촌중학교),남여공학,,N,일반계,,전기,주간,19910121,37.5370651782493,126.88275880551
중학교,공립,7081512,염창중학교,Yumchang Middle School,서울특별시강서양천교육지원청,7536,서울특별시 강서구 양천로67가길 83,(염창동/염창중학교),남여공학,,N,일반계,,전기,주간,19840116,37.5542640665682,126.871747328101
중학교,공립,7081511,염경중학교,Yeomgyeong Middle School,서울특별시강서양천교육지원청,7535,서울특별시 강서구 양천로69길 35,(염창동/염경중학교),남여공학,,N,해당없음,,전기,주간,20051229,37.5545378116366,126.870529242403
중학교,공립,7081510,양천중학교,Yangcheon Middle School,서울특별시강서양천교육지원청,8037,서울특별시 양천구 지양로7길 32,(신월동/양천중학교),남여공학,,N,일반계,,전기,주간,19900120,37.5190011611899,126.830550787
중학교,공립,7081509,양서중학교,Yangseo Middle School,서울특별시강서양천교육지원청,7912,서울특별시 양천구 남부순환로 380,(신월동/양서중학교),남여공학,,N,일반계,,전기,주간,19900120,37.5326758132814,126.828972567552
중학교,공립,7081508,양동중학교,Yangdong Middle School,서울특별시강서양천교육지원청,7947,서울특별시 양천구 목동중앙북로 49,(목동/양동중학교),남여공학,,N,일반계,,전기,주간,19840109,37.5483687522185,126.868717203675
중학교,공립,7081507,양강중학교,Yangkang Middle School,서울특별시강서양천교육지원청,7935,서울특별시 양천구 중앙로 319,(신월동),남여공학,,N,일반계,,전기,주간,19860217,37.5249101622153,126.849620267451
중학교,공립,7081506,신화중학교,Shinhwa Middle School,서울특별시강서양천교육지원청,7902,서울특별시 양천구 남부순환로29길 35,/ 신화중학교 (신월동),남여공학,,N,일반계,,전기,주간,19691111,37.5406111025313,126.829600421672
중학교,공립,7081505,신월중학교,Sinwol Middle School,서울특별시강서양천교육지원청,7902,서울특별시 양천구 남부순환로29길 25,/ 신월중학교 (신월동),남여공학,,N,일반계,,전기,주간,19801217,37.5404619448842,126.828389031623
중학교,공립,7081504,신원중학교,Shinwon Middle School,서울특별시강서양천교육지원청,7909,서울특별시 양천구 가로공원로55길 19,(신월동/신원중학교),남여공학,,N,일반계,,전기,주간,19860129,37.5370924963028,126.82484194889
중학교,공립,7081503,신서중학교,Sinseo Middle School,서울특별시강서양천교육지원청,8091,서울특별시 양천구 중앙로 206,(신정동/신서중학교),남여공학,,N,일반계,,전기,주간,19821209,37.5159664434699,126.855016428706
중학교,공립,7081502,신목중학교,Shinmok Middle School,서울특별시강서양천교육지원청,7981,서울특별시 양천구 목동중앙로 88,(목동/신목중학교),남여공학,,N,일반계,,전기,주간,19860129,37.5370239898936,126.873072488599
중학교,공립,7081501,신남중학교,Shinnam Middle School,서울특별시강서양천교육지원청,8061,서울특별시 양천구 중앙로29길 109,(신월동/신남중학교),남여공학,,N,일반계,,전기,주간,19840109,37.520773887801,126.847826214409
중학교,공립,7081500,수명중학교,Sumyeong Middle School,서울특별시강서양천교육지원청,7642,서울특별시 강서구 수명로2길 16,(내발산동/수명중학교),남여공학,,N,해당없음,,전기,주간,20080301,37.5485669904719,126.824059627155
중학교,공립,7081499,송정중학교,Songjeong Middle School,서울특별시강서양천교육지원청,7628,서울특별시 강서구 남부순환로 121,(공항동/송정중학교),남여공학,,N,일반계,,전기,주간,19910121,37.5531580711075,126.815243549144
중학교,공립,7081498,성재중학교,Seongjae Middle School,서울특별시강서양천교육지원청,7529,서울특별시 강서구 허준로 36,(가양동/성재중학교),남여공학,,N,일반계,,전기,주간,19950110,37.569502050399,126.845404381505
중학교,공립,7081497,삼정중학교,Samjeong Middle School,서울특별시강서양천교육지원청,7508,서울특별시 강서구 금낭화로 210,(방화동/삼정중학교),남여공학,,N,일반계,,전기,주간,19940105,37.5812950426769,126.810295495513
중학교,공립,7081496,백석중학교,Baekseok Middle School,서울특별시강서양천교육지원청,7669,서울특별시 강서구 등촌로51나길 35,(등촌동/백석중학교),남여공학,,N,일반계,,전기,주간,19821209,37.5482909098797,126.858953909893
중학교,공립,7081495,방화중학교,Banghwa Middle School,서울특별시강서양천교육지원청,7621,서울특별시 강서구 개화동로27길 9,(방화동),남여공학,,N,일반계,,전기,주간,19860129,37.5643347062636,126.807106919786
중학교,공립,7081494,방원중학교,Bangwon Middle School,서울특별시강서양천교육지원청,7515,서울특별시 강서구 금낭화로 268,/ 방원중학교 (방화동/방원중학교),남여공학,,N,일반계,,전기,주간,19931005,37.5757386006668,126.808220414193
중학교,공립,7081493,목일중학교,Mokil Middle School,서울특별시강서양천교육지원청,8018,서울특별시 양천구 목동동로8길 70,(신정동/목일중학교),남여공학,,N,일반계,,전기,주간,19861217,37.5135084946262,126.874268759045
중학교,공립,7081492,목운중학교,Mogun Middle School,서울특별시강서양천교육지원청,7996,서울특별시 양천구 목동동로 235,(목동/목운초.중학교),남여공학,,N,해당없음,,전기,주간,20090301,37.527009517428,126.873044206364
중학교,공립,7081491,목동중학교,Mokdong Middle School,서울특별시강서양천교육지원청,8010,서울특별시 양천구 목동동로 172,(신정동/목동중학교),남여공학,,N,일반계,,전기,주간,19810301,37.5209571978324,126.871443390095
중학교,공립,7081490,등원중학교,Deungwon Middle School,서울특별시강서양천교육지원청,7576,서울특별시 강서구 화곡로65길 50,(등촌동/등원중학교),남여공학,,N,일반계,,전기,주간,19950504,37.5597340202733,126.85181537298
중학교,공립,7081489,등명중학교,Deungmyoung Middle School,서울특별시강서양천교육지원청,7585,서울특별시 강서구 공항대로39길 39,(등촌동/등명중학교),남여공학,,N,일반계,,전기,주간,19950110,37.5601933510779,126.843304086976
중학교,공립,7081488,금옥중학교,Geumok Middle School,서울특별시강서양천교육지원청,8080,서울특별시 양천구 신정로 213,/ 금옥중학교 (신정동),남여공학,,N,일반계,,전기,주간,19810301,37.5109653172242,126.843971681779
중학교,공립,7081487,공항중학교,Gonghang Middle School,서울특별시강서양천교육지원청,7618,서울특별시 강서구 방화대로 241,(공항동/공항중학교),남여공학,,N,일반계,,전기,주간,19550428,37.5621775096278,126.814966842188
중학교,공립,7081485,경서중학교,Gyeongseo Middle School,서울특별시강서양천교육지원청,7533,서울특별시 강서구 양천로59길 31,(가양동),남여공학,,N,일반계,,전기,주간,19500901,37.5612418553699,126.857763950485
중학교,공립,7081484,강신중학교,Kangsin Middle School,서울특별시강서양천교육지원청,8047,서울특별시 양천구 남부순환로 604,(신월동/강신중학교),남여공학,,N,일반계,,전기,주간,19881224,37.5151371613165,126.838160107241
초등학교,사립,7081483,유석초등학교,Yooseok  Elementary School,서울특별시강서양천교육지원청,7576,서울특별시 강서구 화곡로69길 9,(등촌동/유석초등학교),남여공학,,N,일반계,,전기,주간,19651203,37.560801806853,126.853779444824
초등학교,공립,7081482,서울신은초등학교,Seoul Sineun Elementary School,서울특별시강서양천교육지원청,8049,서울특별시 양천구 신정이펜2로 30,(신정동),남여공학,,N,해당없음,,전기,주간,20110901,37.5139128078247,126.832169591843
초등학교,공립,7081481,서울화일초등학교,Seoul Hwail Elementary School,서울특별시강서양천교육지원청,7725,서울특별시 강서구 까치산로10길 70,(화곡동/서울화일초등학교),남여공학,,N,해당없음,,전기,주간,20050105,37.5407120318703,126.847470802939
초등학교,공립,7081480,서울화곡초등학교,Seoul Hwagok Elementary School,서울특별시강서양천교육지원청,7722,서울특별시 강서구 초록마을로 28,화곡동/화곡초등학교,남여공학,,N,일반계,,전기,주간,19670331,37.5436696173457,126.846471725362
초등학교,공립,7081479,서울탑산초등학교,Seoul Topsan Elementary School,서울특별시강서양천교육지원청,7525,서울특별시 강서구 허준로 109,(가양동/탑산초등학교),남여공학,,N,일반계,,전기,주간,19930805,37.5670047685109,126.85259398539
초등학교,공립,7081478,서울치현초등학교,Seoul Chihyeon Elementary School,서울특별시강서양천교육지원청,7514,서울특별시 강서구 방화대로47길 43,서울치현초등학교,남여공학,,N,일반계,,전기,주간,19940105,37.5759191517213,126.814645646553
초등학교,공립,7081477,서울지향초등학교,Seoul Jihyang Elementary School,서울특별시강서양천교육지원청,8053,서울특별시 양천구 신정로11길 74,/ 서울지향초등학교 (신정동/지향초등학교),남여공학,,N,일반계,,전기,주간,20020901,37.5128376807713,126.837023804089
초등학교,공립,7081476,서울정목초등학교,Seoul Jeongmok Elementary School,서울특별시강서양천교육지원청,7961,서울특별시 양천구 목동중앙로3길 30-10,(목동/서울정목초등학교),남여공학,,N,일반계,,전기,주간,19810921,37.5365288457417,126.870049083471
초등학교,공립,7081475,서울정곡초등학교,Seoul Jeonggok Elementary School,서울특별시강서양천교육지원청,7518,서울특별시 강서구 방화대로50길 22,(방화동/정곡초등학교),남여공학,,N,일반계,,전기,주간,19921001,37.5769596950152,126.818932773167
초등학교,공립,7081474,서울장수초등학교,Seoul Jangsu Elementary School,서울특별시강서양천교육지원청,8080,서울특별시 양천구 신정로13가길 30,(신정동),남여공학,,N,해당없음,,전기,주간,20051229,37.5129972017178,126.845159735242
초등학교,공립,7081473,서울은정초등학교,Seoul Eunjeong Elementary School,서울특별시강서양천교육지원청,8100,서울특별시 양천구 목동남로 85,서울은정초등학교,남여공학,,N,일반계,,전기,주간,19960710,37.5111416389366,126.867180395408
초등학교,공립,7081472,서울월촌초등학교,Seoul Wolchon Elementary School,서울특별시강서양천교육지원청,7980,서울특별시 양천구 목동중앙로 132,(목동/서울월촌초등학교),남여공학,,N,일반계,,전기,주간,19851012,37.5406954304154,126.876258028151
초등학교,공립,7081471,서울월정초등학교,Seoul Woljeong Elementary School,서울특별시강서양천교육지원청,7761,서울특별시 강서구 월정로 176,(화곡동/월정초등학교),남여공학,,N,일반계,,전기,주간,19811226,37.5349941902013,126.836293577736
초등학교,공립,7081470,서울우장초등학교,Seoul Ujang Elementary School,서울특별시강서양천교육지원청,7689,서울특별시 강서구 화곡로 263,(화곡동/우장초등학교),남여공학,,N,일반계,,전기,주간,19830610,37.5496381852817,126.845984193202
초등학교,공립,7081469,서울영도초등학교,Seoul Youngdo Elementary School,서울특별시강서양천교육지원청,7982,서울특별시 양천구 목동중앙로 70,/ 서울영도초등학교 (목동/서울영도초등학교),남여공학,,N,일반계,,전기,주간,19861004,37.5359499494616,126.871942644571
초등학교,공립,7081468,서울염창초등학교,Seoul Yeomchang Elementary School,서울특별시강서양천교육지원청,7554,서울특별시 강서구 양천로 646-28,(염창동/ 염창초등학교),남여공학,,N,일반계,,전기,주간,19630518,37.5532261352883,126.867600184199
초등학교,공립,7081467,서울염동초등학교,Seoul Yeomdong Elementary School,서울특별시강서양천교육지원청,7542,서울특별시 강서구 양천로73길 17,(염창동/염동초등학교),남여공학,,N,일반계,,전기,주간,19970516,37.5520954793159,126.872350948978
초등학교,공립,7081466,서울염경초등학교,Seoul Yeomkyoung Elementary School,서울특별시강서양천교육지원청,7535,서울특별시 강서구 양천로69길 49,(염창동/서울염경초등학교),남여공학,,N,해당없음,,전기,주간,20050901,37.5550006717487,126.871204647976
초등학교,공립,7081464,서울양화초등학교,Seoul Yanghwa Elementary School,서울특별시강서양천교육지원청,7971,서울특별시 양천구 목동중앙북로16길 57,(목동/서울양화초등학교),남여공학,,N,일반계,,전기,주간,19780803,37.5436692981533,126.873986042971
초등학교,공립,7081463,서울양천초등학교,Seoul Yangcheon Elementary School,서울특별시강서양천교육지원청,7523,서울특별시 강서구 양천로 329,(가양동/양천초등학교),남여공학,,N,일반계,,전기,주간,19000401,37.5701881708645,126.839539660332
초등학교,공립,7081462,서울양원초등학교,Seoul Yangwon Elementary School,서울특별시강서양천교육지원청,7909,서울특별시 양천구 화곡로 16,(신월동/서울양원초등학교),남여공학,,N,일반계,,전기,주간,19901201,37.538217327926,126.823105224215
초등학교,공립,7081461,서울양목초등학교,Seoul Yang-mok Elementary School,서울특별시강서양천교육지원청,8021,서울특별시 양천구 목동로11길 30,(신정동/ 서울양목초등학교),남여공학,,N,일반계,,전기,주간,19800417,37.5238792766238,126.861669190913
초등학교,공립,7081460,서울양명초등학교,Seoul Yangmyeong Elementary School,서울특별시강서양천교육지원청,8091,서울특별시 양천구 중앙로 204,(신정동/양명초등학교),남여공학,,N,일반계,,전기,주간,19821110,37.516374951495,126.856634868655
초등학교,공립,7081459,서울양동초등학교,Seoul Yangdong Elementary School,서울특별시강서양천교육지원청,7942,서울특별시 양천구 오목로23길 24,(신정동),남여공학,,N,일반계,,전기,주간,19720811,37.5258482641162,126.851240194989
초등학교,공립,7081458,서울양강초등학교,Seoul Yang-gang Elementary School,서울특별시강서양천교육지원청,7935,서울특별시 양천구 오목로 101,(신월동/ 서울양강초등학교),남여공학,,N,일반계,,전기,주간,19870423,37.5241103465762,126.847375305566
초등학교,공립,7081457,서울신정초등학교,Seoul Sinjeong Elementary School,서울특별시강서양천교육지원청,7746,서울특별시 강서구 곰달래로31가길 27,(화곡동),남여공학,,N,일반계,,전기,주간,19491001,37.5320717086296,126.852357856852
초등학교,공립,7081456,서울신월초등학교,Seoul Sinwol Elementary School,서울특별시강서양천교육지원청,7716,서울특별시 강서구 강서로31길 48,(화곡동/신월초등학교),남여공학,,N,일반계,,전기,주간,19750311,37.5403655143855,126.839455478388
초등학교,공립,7081455,서울신원초등학교,Seoul Sinwon Elementary School,서울특별시강서양천교육지원청,7915,서울특별시 양천구 남부순환로58길 32,(신월동/서울신원초등학교),남여공학,,N,일반계,,전기,주간,19811012,37.5295155831457,126.829865622881
초등학교,공립,7081454,서울신서초등학교,Seoul Sinseo Elementary School,서울특별시강서양천교육지원청,8089,서울특별시 양천구 목동서로10길 35,(신정동 312-1번지),남여공학,,N,일반계,,전기,주간,19871022,37.5205352530134,126.862325015812
초등학교,공립,7081453,서울신목초등학교,Seoul Sinmoc Elementary School,서울특별시강서양천교육지원청,8017,서울특별시 양천구 신목로5길 11-6,(신정동/서울신목초등학교),남여공학,,N,일반계,,전기,주간,19820408,37.5166109770006,126.872640811853
초등학교,공립,7081452,서울신남초등학교,Seoul Sinnam Elementary School,서울특별시강서양천교육지원청,8065,서울특별시 양천구 남부순환로83길,/ 44 (신월동),남여공학,,N,일반계,,전기,주간,19831024,37.5165286564401,126.844796241568
초등학교,공립,7081451,서울신기초등학교,Seoul Singi Elementary School,서울특별시강서양천교육지원청,8106,서울특별시 양천구 신정로 292,(신정동/서울신기초등학교),남여공학,,N,일반계,,전기,주간,20000502,37.5113123131977,126.854212986887
초등학교,공립,7081450,서울신곡초등학교,Seoul Sin-gok Elementary School,서울특별시강서양천교육지원청,7731,서울특별시 강서구 등촌로13자길 42-14,(화곡동/신곡초등학교),남여공학,,N,일반계,,전기,주간,19830617,37.539095457491,126.856009569323
초등학교,공립,7081449,서울신강초등학교,Seoul Sin-gang Elementary School,서울특별시강서양천교육지원청,7931,서울특별시 양천구 중앙로55길 72,/ 서울신강초등학교 (신월동/서울신강초등학교),남여공학,,N,일반계,,전기,주간,19831203,37.5258441852217,126.842263907731
초등학교,공립,7081448,서울수명초등학교,Seoul Sumyeong Elementary School,서울특별시강서양천교육지원청,7643,서울특별시 강서구 수명로1길 84,(내발산동),남여공학,,N,해당없음,,전기,주간,20080301,37.5527726671834,126.823879421286
초등학교,공립,7081447,서울송화초등학교,Seoul Songhwa Elementary School,서울특별시강서양천교육지원청,7598,서울특별시 강서구 방화대로34길 2,(방화동/송화초등학교),남여공학,,N,일반계,,전기,주간,19900120,37.5681504658023,126.818032939459
초등학교,공립,7081446,서울송정초등학교,Seoul Songjeong Elementary School,서울특별시강서양천교육지원청,7619,서울특별시 강서구 공항대로3길 18,(공항동),남여공학,,N,일반계,,전기,주간,19360906,37.5622308905044,126.810281254376
초등학교,공립,7081445,서울서정초등학교,Seoul Seojeong Elementary School,서울특별시강서양천교육지원청,8002,서울특별시 양천구 목동로8길 19,(목동/서울서정초등학교),남여공학,,N,일반계,,전기,주간,19870831,37.523450121384,126.867236182114
초등학교,공립,7081444,서울삼정초등학교,Seoul Samjoeng Elementary School,서울특별시강서양천교육지원청,7508,서울특별시 강서구 금낭화로 222,/ 서울삼정초등학교 (방화동),남여공학,,N,일반계,,전기,주간,19940506,37.5805084341875,126.810493686239
초등학교,공립,7081443,서울백석초등학교,Seoul Baekseok Elementary School,서울특별시강서양천교육지원청,7564,서울특별시 강서구 공항대로 491,(등촌동/백석초등학교),남여공학,,N,일반계,,전기,주간,19840522,37.5536476529209,126.862425846537
초등학교,공립,7081442,서울방화초등학교,Seoul Banghwa Elementary School,서울특별시강서양천교육지원청,7611,서울특별시 강서구 양천로6길 92,(방화동),남여공학,,N,일반계,,전기,주간,19860129,37.5687040876215,126.807498167739
초등학교,공립,7081441,서울발산초등학교,Seoul Balsan Elementary School,서울특별시강서양천교육지원청,7640,서울특별시 강서구 강서로45길 113,(내발산동/발산초등학교),남여공학,,N,일반계,,전기,주간,19791018,37.5502624356308,126.830994377549
초등학교,공립,7081440,서울목원초등학교,Seoul Mokwon Elementary School,서울특별시강서양천교육지원청,7978,서울특별시 양천구 목동중앙로 204,(목동/목원초등학교),남여공학,,N,일반계,,전기,주간,19950605,37.5429349691333,126.882445908007
초등학교,공립,7081439,서울목운초등학교,Seoul Mogun Elementary School,서울특별시강서양천교육지원청,7996,서울특별시 양천구 목동동로 235,/ 서울목운초등학교 (목동),남여공학,,N,해당없음,,전기,주간,20090301,37.527009517428,126.873044206364
초등학교,공립,7081438,서울목동초등학교,Seoul Mokdong Elementary School,서울특별시강서양천교육지원청,8010,서울특별시 양천구 목동동로12길 12,(신정동/서울목동초등학교),남여공학,,N,일반계,,전기,주간,19731211,37.5228087705411,126.872119522597
초등학교,공립,7081437,서울등현초등학교,Seoul Deunghyun Elementary School,서울특별시강서양천교육지원청,7578,서울특별시 강서구 화곡로65길 124,(등촌동/등현초등학교),남여공학,,N,일반계,,전기,주간,19950110,37.5614511765549,126.847598419984
초등학교,공립,7081436,서울등촌초등학교,Seoul Deungchon Elementary School,서울특별시강서양천교육지원청,7669,서울특별시 강서구 등촌로39길 71,(등촌동/등촌초등학교),남여공학,,N,일반계,,전기,주간,19820707,37.5476142187642,126.857942163854
초등학교,공립,7081435,서울등원초등학교,Seoul Deungwon Elementary School,서울특별시강서양천교육지원청,7577,서울특별시 강서구 화곡로65길 90,/ 서울등원초등학교 (등촌동),남여공학,,N,일반계,,전기,주간,19941101,37.5598135358227,126.850068963394
초등학교,공립,7081434,서울등양초등학교,Seoul Deungyang Elementary School,서울특별시강서양천교육지원청,7580,서울특별시 강서구 강서로56나길 140,/ 등양초등학교 (등촌동/등양초등학교),남여공학,,N,일반계,,전기,주간,19941130,37.5649470358937,126.844760249704
초등학교,공립,7081433,서울등서초등학교,Seoul Deungseo Elementary School,서울특별시강서양천교육지원청,7656,서울특별시 강서구 화곡로58길 86,(화곡동/등서초등학교),남여공학,,N,일반계,,전기,주간,19841102,37.5518843920056,126.855038093326
초등학교,공립,7081432,서울등명초등학교,Seoul Deungmyeong Elementary School,서울특별시강서양천교육지원청,7585,서울특별시 강서구 강서로56나길 34,(등촌동/등명초등학교),남여공학,,N,일반계,,전기,주간,19950901,37.560894450375,126.842382226829
초등학교,공립,7081431,서울등마초등학교,Seoul Deungma Elementary School,서울특별시강서양천교육지원청,7672,서울특별시 강서구 등촌로35길 12,(등촌동/서울등마초등학교),남여공학,,N,해당없음,,전기,주간,20061228,37.5420437126904,126.861667207498
초등학교,공립,7081430,서울내발산초등학교,Seoul Naebalsan Elementary School,서울특별시강서양천교육지원청,7693,서울특별시 강서구 강서로46길 23,(내발산동/내발산초등학교),남여공학,,N,일반계,,전기,주간,19831203,37.5508825455676,126.838164214765
초등학교,공립,7081429,서울남명초등학교,Seoul Nammyeong Elementary School,서울특별시강서양천교육지원청,8077,서울특별시 양천구 중앙로23길 3,(신정동/서울남명초등학교),남여공학,,N,일반계,,전기,주간,19911030,37.5156885267235,126.854099844566
초등학교,공립,7081428,서울공항초등학교,Seoul Konghang Elementary School,서울특별시강서양천교육지원청,7798,서울특별시 강서구 마곡서1로 68,(마곡동),남여공학,,N,일반계,,전기,주간,19821110,37.563110720995,126.821316918027
초등학교,공립,7081427,서울공진초등학교,Seoul Gongjin Elementary School,서울특별시강서양천교육지원청,7810,서울특별시 강서구 마곡서로 33,/ 서울공진초등학교 (마곡동 749-2),남여공학,,N,일반계,,전기,주간,19921125,37.5578308778281,126.822806144479
초등학교,공립,7081426,서울계남초등학교,Seoul Gyenam Elementary School,서울특별시강서양천교육지원청,8099,서울특별시 양천구 목동동로2길 54,/ 서울계남초등학교 (신정동/서울계남초등학교),남여공학,,N,일반계,,전기,주간,19790506,37.5101677598408,126.86001590922
초등학교,공립,7081425,서울경인초등학교,Seoul Kyongin Elementary School,서울특별시강서양천교육지원청,7985,서울특별시 양천구 안양천로 1009,(목동/서울경인초등학교),남여공학,,N,일반계,,전기,주간,19861127,37.5328710177851,126.885695675904
초등학교,공립,7081424,서울개화초등학교,Seoul Gaehwa Elementary School,서울특별시강서양천교육지원청,7507,서울특별시 강서구 양천로 11,(방화동/개화초등학교),남여공학,,N,일반계,,전기,주간,19560510,37.5739262377478,126.804694204855
초등학교,공립,7081423,서울강월초등학교,Seoul Gangwol Elementary School,서울특별시강서양천교육지원청,8042,서울특별시 양천구 신월로 97,(신월동/서울강월초등학교),남여공학,,N,일반계,,전기,주간,19880209,37.516341716111,126.833431935892
초등학교,공립,7081422,서울강신초등학교,Seoul Gangshin Elementary,서울특별시강서양천교육지원청,7901,서울특별시 양천구 월정로 280,/ 서울강신초등학교 (신월동/서울강신초등학교),남여공학,,N,일반계,,전기,주간,19850419,37.5420997085334,126.829583681761
초등학교,공립,7081421,서울강서초등학교,Seoul Kangseo Elementary School,서울특별시강서양천교육지원청,7930,서울특별시 양천구 오목로 31,(신월동/ 서울강서초등학교),남여공학,,N,일반계,,전기,주간,19801018,37.5224127216539,126.840987861073
초등학교,공립,7081420,서울갈산초등학교,Seoul Galsan Elementary School,서울특별시강서양천교육지원청,8100,서울특별시 양천구 목동로 31,/ 서울갈산초등학교 (신정동),남여공학,,N,일반계,,전기,주간,19870909,37.5123715649068,126.870229875385
초등학교,공립,7081419,서울가양초등학교,Seoul Gayang Elementary School,서울특별시강서양천교육지원청,7533,서울 강서구 허준로 186,/ (가양동/가양초등학교),남여공학,,N,일반계,,전기,주간,19920715,37.5622171927841,126.858521557616
초등학교,공립,7081418,서울가곡초등학교,Seoul Gagok Elementary School,서울특별시강서양천교육지원청,7633,서울특별시 강서구 공항대로36길 74,(내발산동/가곡초등학교),남여공학,,N,일반계,,전기,주간,19920715,37.5557076050115,126.836103074522
중학교,국립,7061129,서울대학교사범대학부설여자중학교,Seoul National University Girls’Middle School,교육부,3087,서울특별시 종로구 대학로 64,/ 서울대학교사범대학부설여자중학교 (이화동),여,,N,일반계,,전기,주간,19690303,37.5775997032467,127.004295521787
초등학교,국립,7061128,서울대학교사범대학부설초등학교,Seoul National University Elementary School,교육부,3087,서울특별시 종로구 대학로 64,(동숭동/서울사대부설초등학교),남여공학,,N,일반계,,전기,주간,18950416,37.5775997032467,127.004295521787
중학교,사립,7061120,환일중학교,Hwanil Middle School,서울특별시중부교육지원청,4500,서울특별시 중구 환일길 47,(만리동2가),남,,N,일반계,,전기,주간,19470624,37.5537559309443,126.962588449936
중학교,사립,7061119,한양중학교,Hanyang Middle School,서울특별시중부교육지원청,4566,서울특별시 중구 을지로 299,(신당동),남,,N,일반계,,전기,주간,19480901,37.5658716036039,127.011443307588
중학교,공립,7061118,한강중학교,Hangang Middle School,서울특별시중부교육지원청,4384,서울특별시 용산구 녹사평대로 73,(서빙고동),남여공학,,N,일반계,,전기,주간,19721229,37.5236119183008,126.992790867047
중학교,공립,7061117,청운중학교,Cheong-un Middle School,서울특별시중부교육지원청,3047,서울특별시 종로구 창의문로 51,(청운동),남,,N,일반계,,전기,주간,19520201,37.5891709420972,126.971088602259
중학교,공립,7061116,창덕여자중학교,Changdeok Girls’ Middle School,서울특별시중부교육지원청,4516,서울특별시 중구 정동길 22,/ 창덕여자중학교 (정동),여,,N,일반계,,전기,주간,19451130,37.5664327974417,126.96921017611
중학교,사립,7061115,중앙중학교,Choongang Middle School,서울특별시중부교육지원청,3051,서울특별시 종로구 창덕궁길 164,(계동),남여공학,,N,일반계,,전기,주간,19080601,37.5837882231459,126.987472622092
중학교,사립,7061114,장충중학교,Jangchung Middle School,서울특별시중부교육지원청,4603,서울특별시 중구 동호로15길 93,(신당동),남,,N,일반계,,전기,주간,19470825,37.5535149002283,127.006414953028
중학교,공립,7061113,장원중학교,Jangwon Middle School,서울특별시중부교육지원청,4603,서울특별시 중구 동호로15길 93-34,(신당동),남여공학,,N,일반계,,전기,주간,19680806,37.5539645178112,127.006042884936
중학교,공립,7061112,용산중학교,Yongsan Middle School,서울특별시중부교육지원청,4353,서울특별시 용산구 두텁바위로 74,(용산동2가),남,,N,일반계,,전기,주간,19450909,37.5460125390171,126.9809128899
중학교,공립,7061111,용강중학교,Yong-gang Middle School,서울특별시중부교육지원청,4423,서울특별시 용산구 이촌로65가길 91,(이촌동),남여공학,,N,일반계,,전기,주간,19681101,37.5215769321647,126.975485292591
중학교,사립,7061110,오산중학교,Osan Middle School,서울특별시중부교육지원청,4396,서울특별시 용산구 보광로7길 17,(보광동/오산중학교),남,,N,일반계,,전기,주간,19070515,37.5235805097988,127.000887240982
각종학교(중),사립,7061109,예원학교,Yewon School,서울특별시중부교육지원청,4518,서울특별시 중구 정동길 25,(정동),남여공학,,N,일반계,,전기,주간,19661117,37.56702326472,126.971542683635
중학교,사립,7061108,신광여자중학교,Shinkwang Girls’ Middle School,서울특별시중부교육지원청,4313,서울특별시 용산구 청파로 263,(청파동3가),여,,N,일반계,,전기,주간,19460817,37.5428998795519,126.969447523164
중학교,사립,7061106,성심여자중학교,Sungsim Girls’ Middle School,서울특별시중부교육지원청,4361,서울특별시 용산구 원효로19길 49,/ 성심여자중학교 (원효로4가),여,,N,일반계,,전기,주간,19570525,37.534209370461,126.95459335968
중학교,공립,7061105,선린중학교,Sunrin Middle School,서울특별시중부교육지원청,4314,서울특별시 용산구 원효로97길 33-4,(청파동3가),남여공학,,N,일반계,,전기,주간,18990624,37.5427698351486,126.966038693159
중학교,사립,7061104,상명대학교사범대학부속여자중학교,Girls` Middle School Attached to College of Education Sang Myung University,서울특별시중부교육지원청,3016,서울특별시 종로구 홍지문2길 20,(홍지동),여,,N,일반계,,전기,주간,19661117,37.604108905882,126.955159496571
중학교,사립,7061103,보성여자중학교,Bosung Girls’ Middle School,서울특별시중부교육지원청,4338,서울특별시 용산구 신흥로3가길 66,(용산동2가),여,,N,일반계,,전기,주간,19071010,37.5430815444968,126.984284175086
중학교,사립,7061102,배화여자중학교,Paiwha Girls’ Middle School,서울특별시중부교육지원청,3039,서울특별시 종로구 필운대로1길 34,/ 배화여자중학교 (필운동),여,,N,일반계,,전기,주간,18981002,37.5795440101952,126.967291871532
중학교,사립,7061101,배문중학교,Baemoon Middle School,서울특별시중부교육지원청,4305,서울특별시 용산구 효창원로 258,/ 배문중학교 (서계동),남,,N,일반계,,전기,주간,19550317,37.5499187190496,126.963904100329
중학교,사립,7061100,동성중학교,Dongsung Middle School,서울특별시중부교육지원청,3083,서울특별시 종로구 대학로 156,(혜화동),남,,N,일반계,,전기,주간,19070908,37.5849699592551,127.003097645534
중학교,공립,7061099,덕수중학교,Ducksu Middle School,서울특별시중부교육지원청,4548,서울 중구 마른내로9길 10,(인현동2가/덕수중학교),남여공학,,N,일반계,,전기,주간,19100413,37.5655795665775,126.996997330546
중학교,사립,7061098,덕성여자중학교,Duksung Girls’ Middle School,서울특별시중부교육지원청,3062,서울특별시 종로구 율곡로3길 49,(송현동),여,,N,일반계,,전기,주간,19200419,37.5777859821946,126.981909156246
중학교,사립,7061097,대신중학교,Daeshin Middle School,서울특별시중부교육지원청,3029,서울특별시 종로구 사직로 9,(행촌동),남,,N,일반계,,전기,주간,19380405,37.573123769216,126.96125454884
중학교,사립,7061096,대경중학교,Daekyeong Middle School,서울특별시중부교육지원청,4592,서울특별시 중구 매봉18길 111,(신당동),남여공학,,N,일반계,,전기,주간,19560228,37.5563732600255,127.016979156363
중학교,공립,7061095,금호여자중학교,Kumho Girls Middle School,서울특별시중부교육지원청,4587,서울특별시 중구 청구로 6,/ 금호여자중학교 본관동(주1) (신당동),여,,N,일반계,,전기,주간,19680806,37.5580382015709,127.020461206678
중학교,사립,7061094,경신중학교,Kyungshin Middle School,서울특별시중부교육지원청,3067,서울특별시 종로구 혜화로 74,(혜화동/경신중고등학교),남,,N,일반계,,전기,주간,18850509,37.5922022663657,126.999531005507
초등학교,사립,7061093,운현초등학교,Unhyun Elementary School,서울특별시중부교육지원청,3131,서울특별시 종로구 삼일대로 460,(운니동/운현초등학교),남여공학,,N,일반계,,전기,주간,19860304,37.5766305283836,126.988157468773
초등학교,사립,7061092,신광초등학교,Shinkwang Elementary School,서울특별시중부교육지원청,4313,서울특별시 용산구 청파로 263,/ 신광초등학교 청파동 3가 100 (청파동3가),남여공학,,N,일반계,,전기,주간,19641126,37.5428998795519,126.969447523164
초등학교,사립,7061091,숭의초등학교,Soong Eui Elementary School,서울특별시중부교육지원청,4628,서울특별시 중구 소파로2길 10,/ 숭의초등학교 (예장동),남여공학,,N,일반계,,전기,주간,19660225,37.5578530747432,126.987481605528
초등학교,공립,7061090,서울흥인초등학교,Seoul Heung-in Elementary School,서울특별시중부교육지원청,4586,서울특별시 중구 청구로6길 11,(신당동/흥인초등학교),남여공학,,N,일반계,,전기,주간,19461114,37.560870009971,127.014555488211
초등학교,공립,7061089,서울후암초등학교,Seoul Huam Elementary School,서울특별시중부교육지원청,4328,서울특별시 용산구 두텁바위로 140,/ 서울후암초등학교 (후암동),남여공학,,N,일반계,,전기,주간,19670301,37.5513654103686,126.981724291635
초등학교,공립,7061088,서울효제초등학교,Seoul Hyoje Elementary School,서울특별시중부교육지원청,3126,서울특별시 종로구 대학로 12,/ 서울효제초등학교 (효제동),남여공학,,N,일반계,,전기,주간,18951115,37.5726895793394,127.003490957697
초등학교,공립,7061087,서울혜화초등학교,Seoul Hyehwa Elementary School,서울특별시중부교육지원청,3067,서울특별시 종로구 혜화로 32,/ 서울혜화초등학교 (혜화동),남여공학,,N,일반계,,전기,주간,19100125,37.5886344276384,127.000253620839
초등학교,공립,7061086,서울한남초등학교,Seoul Hannam Elementary School,서울특별시중부교육지원청,4418,서울특별시 용산구 한남대로 112,/ 서울한남초등학교 (한남동),남여공학,,N,일반계,,전기,주간,19210509,37.5392036532348,127.005599847436
초등학교,공립,7061085,서울한강초등학교,Seoul Hangang Elementary School,서울특별시중부교육지원청,4388,서울특별시 용산구 한강대로14길 9,/ 서울한강초등학교 (한강로3가),남여공학,,N,일반계,,전기,주간,19590331,37.5252261730909,126.965099429477
초등학교,공립,7061084,서울충무초등학교,Seoul Chungmu Elementary School,서울특별시중부교육지원청,4618,서울 중구 퇴계로50길 13,(장충동2가/충무초등학교),남여공학,,N,일반계,,전기,주간,19570428,37.5619494839149,127.001235055009
초등학교,공립,7061083,서울청파초등학교,Seoul Cheongpa Elementary School,서울특별시중부교육지원청,4306,서울특별시 용산구 효창원로 228,/ 서울청파초등학교 (청파동2가),남여공학,,N,일반계,,전기,주간,19430120,37.5473049014312,126.963543924367
초등학교,공립,7061082,서울청운초등학교,Seoul Chungwoon Elementary School,서울특별시중부교육지원청,3032,서울특별시 종로구 자하문로 105,/ 청운초등학교 (청운동),남여공학,,N,일반계,,전기,주간,19230401,37.585805731799,126.969294698603
초등학교,공립,7061081,서울청구초등학교,Seoul Cheonggu Elementary School,서울특별시중부교육지원청,4589,서울특별시 중구 다산로 170,(신당동/청구초등학교),남여공학,,N,일반계,,전기,주간,19370901,37.5591166793514,127.013724413955
초등학교,공립,7061080,서울창신초등학교,Seoul Changshin Elementary School,서울특별시중부교육지원청,3103,서울특별시 종로구 지봉로 73,/ 서울창신초등학교 (창신동),남여공학,,N,일반계,,전기,주간,19160520,37.5762114748296,127.014293687874
초등학교,공립,7061079,서울재동초등학교,Seoul Jaedong Elementary School,서울특별시중부교육지원청,3056,서울특별시 종로구 북촌로4길 7,/ 서울재동초등학교 (가회동),남여공학,,N,일반계,,전기,주간,18950830,37.5800299130383,126.985177794566
초등학교,공립,7061078,서울장충초등학교,Seoul Jangchung Elementary School,서울특별시중부교육지원청,4609,서울특별시 중구 청구로17길 40,/ 서울장충초등학교 (신당동),남여공학,,N,일반계,,전기,주간,19531021,37.559971222213,127.01170475684
초등학교,공립,7061077,서울이태원초등학교,Seoul Itaewon Elementary School,서울특별시중부교육지원청,4345,서울특별시 용산구 녹사평대로40길 19,(이태원동/이태원초등학교),남여공학,,N,일반계,,전기,주간,19430501,37.5364777066784,126.987672660332
초등학교,공립,7061076,서울원효초등학교,Seoul Wonhyo Elementary School,서울특별시중부교육지원청,4357,서울특별시 용산구 효창원로13길 38,/ 서울원효초등학교 (산천동/원효초등학교),남여공학,,N,일반계,,전기,주간,19830511,37.5361612583146,126.951545316146
초등학교,공립,7061075,서울용암초등학교,Seoul Yong-am Elementary School,서울특별시중부교육지원청,4341,서울특별시 용산구 녹사평대로60길 39,(용산동2가/ 용암초등학교),남여공학,,N,일반계,,전기,주간,19650926,37.5453029008824,126.989434775031
초등학교,공립,7061074,서울용산초등학교,Seoul Yongsan Elementary School,서울특별시중부교육지원청,4375,서울 용산구 한강대로57길 33,(한강로2가/용산초등학교),남여공학,,N,일반계,,전기,주간,19451101,37.535613442977,126.972550624529
초등학교,공립,7061073,서울신용산초등학교,Seoul Shinyongsan Elementary School,서울특별시중부교육지원청,4423,서울특별시 용산구 이촌로 255,/ 301-75번지 (이촌동),남여공학,,N,일반계,,전기,주간,19680925,37.519593386088,126.97533674572
초등학교,공립,7061072,서울신당초등학교,Seoul Sindang Elementary School,서울특별시중부교육지원청,4579,서울특별시 중구 난계로 141,(신당동),남여공학,,N,해당없음,,전기,주간,20070214,37.5636262141245,127.023673134876
초등학교,공립,7061070,서울세검정초등학교,Seoul Segumjung Elementary School,서울특별시중부교육지원청,3014,서울특별시 종로구 세검정로9길 1,(신영동/서울세검정초등학교),남여공학,,N,일반계,,전기,주간,19481124,37.6034688343928,126.960968837428
초등학교,공립,7061069,서울서빙고초등학교,Seoul Seobinggo Elementary School,서울특별시중부교육지원청,4384,서울특별시 용산구 서빙고로51길 14,/ 서울서빙고초등학교 (서빙고동),남여공학,,N,일반계,,전기,주간,19451101,37.5220689203394,126.992300401397
초등학교,공립,7061068,서울삼광초등학교,Seoul Samgwang Elementary School,서울특별시중부교육지원청,4335,서울특별시 용산구 두텁바위로1나길 19,/ 서울삼광초등학교 (후암동),남여공학,,N,일반계,,전기,주간,19451101,37.5477523117279,126.976594308147
초등학교,공립,7061067,서울봉래초등학교,Seoul Bongnae Elementary School,서울특별시중부교육지원청,4501,서울특별시 중구 손기정로 73,(만리동2가),남여공학,,N,일반계,,전기,주간,18950918,37.5564123449189,126.965250577981
초등학교,공립,7061066,서울보광초등학교,Seoul Bogwang Elementary School,서울특별시중부교육지원청,4407,서울특별시 용산구 우사단로 20,(이태원동/보광초등학교),남여공학,,N,일반계,,전기,주간,19620622,37.5325404707342,126.996391100579
초등학교,공립,7061065,서울명신초등학교,Seoul Myungshin Elementary School,서울특별시중부교육지원청,3093,서울특별시 종로구 낙산길 250,(창신동),남여공학,,N,일반계,,전기,주간,19711006,37.5814512555649,127.014622893206
초등학교,공립,7061064,서울매동초등학교,Seoul Maedong Elementary School,서울특별시중부교육지원청,3027,서울특별시 종로구 사직로9길 19,/ 서울매동초등학교 (필운동),남여공학,,N,일반계,,전기,주간,18951115,37.5774996471315,126.966941485332
초등학교,공립,7061063,서울독립문초등학교,Seoul Dongnimmun Elementary School,서울특별시중부교육지원청,3025,서울특별시 종로구 통일로12길 23,(무악동),남여공학,,N,일반계,,전기,주간,19570928,37.5742155272779,126.959972199819
초등학교,공립,7061062,서울덕수초등학교,Seoul Deoksoo Elementary School,서울특별시중부교육지원청,4519,서울특별시 중구 덕수궁길 140,/ 서울덕수초등학교 (정동),남여공학,,N,일반계,,전기,주간,19120401,37.5690888764456,126.974657902016
초등학교,공립,7061061,서울남정초등학교,Seoul Namjeong Elementary School,서울특별시중부교육지원청,4368,서울특별시 용산구 원효로64길 17-10,/ 서울남정초등학교 (원효로2가),남여공학,,N,일반계,,전기,주간,19451101,37.535845468326,126.964503192038
초등학교,공립,7061060,서울남산초등학교,Seoul Namsan Elementary School,서울특별시중부교육지원청,4629,서울특별시 중구 퇴계로22길 17,/ 서울남산초등학교 (남산동2가),남여공학,,N,일반계,,전기,주간,19451101,37.5597837446411,126.986776737543
초등학교,공립,7061059,서울금양초등학교,Seoul Geumyang Elementary School,서울특별시중부교육지원청,4318,서울특별시 용산구 효창원로 137,/ 서울금양초등학교 (효창동),남여공학,,N,일반계,,전기,주간,19150910,37.5409423141075,126.961831873199
